X,Y,OBJECTID,Airs_ID,Facility,Latitude,Longitude,Date_Data_Published
-105.0966,40.5512200000001,1,069-0171,CF ALTITUDE -ALTA CONVENIENCE #6130,40.55122,-105.0966,2023/05/04 00:00:00+00
-104.58381,40.3862500000001,2,123-4268,"PDC ENERGY - LOUIS KLEIN 19-1; SETH 1, 5",40.38625,-104.58381,2023/05/04 00:00:00+00
-102.18742,38.0483300000001,3,777-2332,KIRKLAND CONSTRUCTION - SCREEN          ,38.04833,-102.18742,2023/05/04 00:00:00+00
-104.64948,40.5523500000001,4,123-5877,"PDC - CLARK 21, 22-27",40.55235,-104.64948,2023/05/04 00:00:00+00
-105.10949,39.59986,5,059-2013,MURPHYS OIL - MURPHY EXPRESS LITTLETON,39.59986,-105.10949,2023/05/04 00:00:00+00
-102.22045,38.1218699999999,6,099-0069,SOUTHEASTERN COLORADO COOP - HARTMAN,38.12187,-102.22045,2023/05/04 00:00:00+00
-104.9352,37.0148100000001,7,071-0382,OGRIS OPERATING - HR 07-05V,37.01481,-104.9352,2023/05/04 00:00:00+00
-105.00525,40.2635,8,123-9015,KERR-MCGEE OIL & GAS - 36149596,40.2635,-105.00525,2023/05/04 00:00:00+00
-104.98083,39.7751300000001,9,031-0083,READY MIXED CONCRETE                    ,39.77513,-104.98083,2023/05/04 00:00:00+00
-104.59009,40.5892400000001,10,123-6331,NOBLE ENERGY - BATTERY #117163,40.58924,-104.59009,2023/05/04 00:00:00+00
-107.70645,39.46664,11,045-0529,ENCANA - B7,39.46664,-107.70645,2023/05/04 00:00:00+00
-103.83296,40.85441,12,123-9D72,FUNDARE - RAZOR 11 CPB,40.85441,-103.83296,2023/05/04 00:00:00+00
-104.80368,40.1449000000001,13,123-2373,KERR-MCGEE - X11336 34002263 CANNON FD,40.1449,-104.80368,2023/05/04 00:00:00+00
-107.01589,40.4741000000001,14,107-0079,PRECISION EXCA-CAMILLETTI MILNER #2 PIT ,40.4741,-107.01589,2023/05/04 00:00:00+00
-108.65921,38.06308,15,113-0083,CABOT O&G CORP. - FOSSIL FEDERAL. 1-20D,38.06308,-108.65921,2023/05/04 00:00:00+00
-104.84476,37.2318,16,777-4454,EVERGREEN NATURAL RESOURCES - PORTABLE E,37.2318,-104.84476,2023/05/04 00:00:00+00
-104.62797,40.4729899999999,17,123-2194,NOBLE ENERGY INC. BATTERY #11318100,40.47299,-104.62797,2023/05/04 00:00:00+00
-108.24327,39.4939800000001,18,045-0952,OXY USA WTP LP-CC-629,39.49398,-108.24327,2023/05/04 00:00:00+00
-104.7321,38.7375800000001,19,041-0469,CST METRO LLC DBA CORNER STORE #622,38.73758,-104.7321,2023/05/04 00:00:00+00
-108.35652,39.7068800000001,20,103-0445,ENCANA OIL & GAS - FFR B14-498-8002D BAT,39.70688,-108.35652,2023/05/04 00:00:00+00
-104.8424,40.6539999999999,21,123-9910,EDGE ENERGY II - LINDSTROM 24-8-67 1H,40.654,-104.8424,2023/05/04 00:00:00+00
-103.97248,40.6838700000001,22,123-9C02,NOBLE -MCCLELLAN / DOROTHY STATE ECONODE,40.68387,-103.97248,2023/05/04 00:00:00+00
-104.49302,40.3780600000001,23,123-7692,MERIT ENERGY COMPANY - ROTHE 16,40.37806,-104.49302,2023/05/04 00:00:00+00
-104.96447,39.95005,24,001-1890,K.P. KAUFFMAN- NORTH WASHINGTON,39.95005,-104.96447,2023/05/04 00:00:00+00
-104.65834,37.2038,25,071-0785,EVERGREEN NATURAL RESOURCES - MONTOYA 14,37.2038,-104.65834,2023/05/04 00:00:00+00
-107.52751,37.23872,26,067-1303,"SIMCOE LLC - FISCHER, MARK FEDERAL B1",37.23872,-107.52751,2023/05/04 00:00:00+00
-104.87897,40.3193600000001,27,123-3155,KERR-MCGEE 15168-DARCY 1,40.31936,-104.87897,2023/05/04 00:00:00+00
-104.71599,37.18261,28,071-0878,EVERGREEN NATURAL RESOURCES - WARREN 23-,37.18261,-104.71599,2023/05/04 00:00:00+00
-108.13874,39.5393,29,045-1850,CAERUS PICEANCE LLC - GARDEN GULCH 1,39.5393,-108.13874,2023/05/04 00:00:00+00
-107.55565,39.5089,30,045-2396,TEP ROCKY MT - FEDERAL 21A PROD FACILITY,39.5089,-107.55565,2023/05/04 00:00:00+00
-104.90013,39.95359,31,001-2253,PDC ENERGY - TOWER LD,39.95359,-104.90013,2023/05/04 00:00:00+00
-104.60038,40.2525500000001,32,123-2905,NOBLE ENERGY - BATTERY #415779928,40.25255,-104.60038,2023/05/04 00:00:00+00
-104.69284,40.2665800000001,33,123-9870,Noble Tank Battery #415825706,40.26658,-104.69284,2023/05/04 00:00:00+00
-104.68849,40.4512800000001,34,123-0275,MAXANNS INC                             ,40.45128,-104.68849,2023/05/04 00:00:00+00
-104.8616,40.1908800000001,35,123-3112,KERR-MCGEE - 34002237,40.19088,-104.8616,2023/05/04 00:00:00+00
-108.91872,39.84891,36,103-0722,UTAH GAS - LOWER HORSE DRAW 2255,39.84891,-108.91872,2023/05/04 00:00:00+00
-108.51281,39.09138,37,077-0356,SAFEWAY INC. - #1533,39.09138,-108.51281,2023/05/04 00:00:00+00
-108.10526,39.60626,38,045-2213,EXXON MOBIL CORP - COLONY MINE SITE,39.60626,-108.10526,2023/05/04 00:00:00+00
-104.78872,38.91466,39,041-1587,BLUE STAR CLEANERS LLC.,38.91466,-104.78872,2023/05/04 00:00:00+00
-104.7324,40.2521400000001,40,123-5264,KERR-MCGEE - BATTERY# 93065,40.25214,-104.7324,2023/05/04 00:00:00+00
-104.9557,40.1771,41,123-6547,KERR-MCGEE OIL & GAS - 36186911,40.1771,-104.9557,2023/05/04 00:00:00+00
-104.77097,40.45386,42,123-5302,NOBLE ENERGY - BATTERY #414444017,40.45386,-104.77097,2023/05/04 00:00:00+00
-104.37608,37.21744,43,071-0097,TAMROCK GRAVEL - BOTTOMLESS PIT,37.21744,-104.37608,2023/05/04 00:00:00+00
-104.53907,40.2903700000001,44,123-6393,NOBLE ENERGY INC. BATTERY #10013700,40.29037,-104.53907,2023/05/04 00:00:00+00
-104.87232,37.17983,45,071-0933,EVERGREEN NATURAL RESOURCES - GUY 34-10,37.17983,-104.87232,2023/05/04 00:00:00+00
-105.08194,39.8804,46,059-0787,CIRCLE K STORES - CORNER STORE #1150,39.8804,-105.08194,2023/05/04 00:00:00+00
-104.92131,38.6206700000001,47,041-0879,SCHMIDT CONST CO - MENZER QUARRY,38.62067,-104.92131,2023/05/04 00:00:00+00
-104.9166,40.18057,48,123-1371,SEE 123-4391 ENCANA - NELSON #23-32     ,40.18057,-104.9166,2023/05/04 00:00:00+00
-104.69378,40.29135,49,123-4248,PDC ENERGY - PESCHEL SEC 20 PAD,40.29135,-104.69378,2023/05/04 00:00:00+00
-108.3703,40.0074100000001,50,103-0369,CAERUS PICEANCE - YELLOW CREEK 34-44-1 (,40.00741,-108.3703,2023/05/04 00:00:00+00
-104.97929,39.9920100000001,51,001-1917,"EXTRACTION O&G - LARKRIDGE MA03-09D, 10D",39.99201,-104.97929,2023/05/04 00:00:00+00
-104.64265,40.2089700000001,52,123-3239,"NOBLE ENERGY, INC. - 415860886",40.20897,-104.64265,2023/05/04 00:00:00+00
-103.22693,40.7193900000001,53,075-0091,MCATEE CONSTRUCTION CO- BOLLISH PIT     ,40.71939,-103.22693,2023/05/04 00:00:00+00
-103.21061,40.61834,54,075-0064,"CHANEY-REAGER FUNERAL HOME, INC.        ",40.61834,-103.21061,2023/05/04 00:00:00+00
-104.90669,40.16266,55,123-3816,CRESTONE PEAK - TOWNSEND BATTERY,40.16266,-104.90669,2023/05/04 00:00:00+00
-107.8997,39.49657,56,045-0572,TEP ROCKY MTN - RU 28 SWNW,39.49657,-107.8997,2023/05/04 00:00:00+00
-104.51684,40.2343100000001,57,123-9574,Noble Tank Battery #415860863,40.23431,-104.51684,2023/05/04 00:00:00+00
-102.98184,38.09301,58,011-0088,ALL RITE PAVING - SHARP GRAVEL PIT,38.09301,-102.98184,2023/05/04 00:00:00+00
-104.41652,40.2711700000001,59,123-9FE9,BONANZA CREEK - MUSTANG 42-34 PROD FACIL,40.27117,-104.41652,2023/05/04 00:00:00+00
-108.64101,39.1090800000001,60,077-0163,TA  OPERATING-WALSENBURG MINIT MART #649,39.10908,-108.64101,2023/05/04 00:00:00+00
-105.0534,40.0193700000001,61,123-7676,CRESTONE PEAK - VESSELS MINERALS A UNIT,40.01937,-105.0534,2023/05/04 00:00:00+00
-108.21314,39.60624,62,045-2191,BERRY PETROLEUM COMPANY - C-19,39.60624,-108.21314,2023/05/04 00:00:00+00
-105.1172,39.9615000000001,63,013-1509,LOXO ONCOLOGY - 600 TECH COURT,39.9615,-105.1172,2023/05/04 00:00:00+00
-104.61694,40.23024,64,123-9A09,NOBLE ENERGY - BATTERY #415832867,40.23024,-104.61694,2023/05/04 00:00:00+00
-104.5285,40.2199000000001,65,123-9AA1,Noble Tank Battery #415838233,40.2199,-104.5285,2023/05/04 00:00:00+00
-104.74674,40.5377300000001,66,777-4055,A-1 ORGANICS-MORBARK,40.53773,-104.74674,2023/05/04 00:00:00+00
-104.68101,40.41225,67,123-0415,AGFINITY INC. - 1607 2ND AVE,40.41225,-104.68101,2023/05/04 00:00:00+00
-105.00009,40.12864,68,123-8586,KP KAUFFMAN Bliss,40.12864,-105.00009,2023/05/04 00:00:00+00
-104.94212,39.79955,69,001-0016,"NUSTAR LOGISTICS, LP-DENVER TERMINAL    ",39.79955,-104.94212,2023/05/04 00:00:00+00
-107.69456,39.48652,70,045-0706,ENCANA (WEST) - F-32,39.48652,-107.69456,2023/05/04 00:00:00+00
-104.73257,40.13285,71,123-5497,KERR-MCGEE OIL & GAS - 11540700,40.13285,-104.73257,2023/05/04 00:00:00+00
-104.71797,40.32521,72,123-7791,SRC ENERGY - STROMBERGER T4N-R66W-S12 L0,40.32521,-104.71797,2023/05/04 00:00:00+00
-104.47228,40.54641,73,123-6958,Noble Tank Battery #415779511,40.54641,-104.47228,2023/05/04 00:00:00+00
-104.74841,37.2611800000001,74,071-0740,EVERGREEN NATURAL RESOURCES - MARMOT 41-,37.26118,-104.74841,2023/05/04 00:00:00+00
-107.71572,39.4687300000001,75,045-2222,GRAND RIVER GATHERING - HUNTER MESA CS,39.46873,-107.71572,2023/05/04 00:00:00+00
-108.41804,39.9512899999999,76,103-0530,TEP ROCKY MTN - RGU 22-20-198,39.95129,-108.41804,2023/05/04 00:00:00+00
-105.12151,40.15971,77,777-0267,GOLDENS CONCRETE CO                     ,40.15971,-105.12151,2023/05/04 00:00:00+00
-108.39776,38.16162,78,777-1978,WILLIAMS CONSTRUCTION                   ,38.16162,-108.39776,2023/05/04 00:00:00+00
-107.87002,39.2574000000001,79,077-0484,LARAMIE ENERGY - UTE WATER 22-14 PAD,39.2574,-107.87002,2023/05/04 00:00:00+00
-104.94117,37.1089700000001,80,777-3810,TIMBER CREEK - PORTABLE ENGINE - NE 36-0,37.10897,-104.94117,2023/05/04 00:00:00+00
-104.48972,40.35882,81,123-A0E6,"PDC ENERGY, INC. - PYRAMID 36 SEC HZ",40.35882,-104.48972,2023/05/04 00:00:00+00
-104.99932,39.6771600000001,82,031-0484,OPTIKEM INTL                            ,39.67716,-104.99932,2023/05/04 00:00:00+00
-104.61344,40.4566800000001,83,123-1771,Noble Tank Battery #11352400,40.45668,-104.61344,2023/05/04 00:00:00+00
-104.86603,39.09792,84,041-1598,SAFEWAY INC. - STORE 1440,39.09792,-104.86603,2023/05/04 00:00:00+00
-104.91818,37.1032599999999,85,071-0187,TIMBER CREEK - XTO 469,37.10326,-104.91818,2023/05/04 00:00:00+00
-104.82877,40.5325000000001,86,123-A0DD,BAYSWATER E&P - HESTER FARMS II BATTERY,40.5325,-104.82877,2023/05/04 00:00:00+00
-108.71927,39.1487599999999,87,077-0643,"MAVERIK, INC - #400",39.14876,-108.71927,2023/05/04 00:00:00+00
-104.96822,40.09318,88,123-6348,KERR-MCGEE OIL & GAS - 34002729,40.09318,-104.96822,2023/05/04 00:00:00+00
-104.74972,40.17019,89,123-3794,CRESTONE PEAK - IONE 12 & 22 2,40.17019,-104.74972,2023/05/04 00:00:00+00
-104.57279,38.2975500000001,90,101-1147,LOAF N JUG INC NO 086,38.29755,-104.57279,2023/05/04 00:00:00+00
-104.87245,37.0077800000001,91,071-0406,TIMBER CREEK - HR 10-15V,37.00778,-104.87245,2023/05/04 00:00:00+00
-104.61272,40.1741300000001,92,123-9157,KERR-MCGEE OIL & GAS -BATTERY #415807827,40.17413,-104.61272,2023/05/04 00:00:00+00
-108.45908,39.07752,93,077-0174,CST METRO LLC DBA CORNER STORE #4061,39.07752,-108.45908,2023/05/04 00:00:00+00
-104.94012,37.2024700000001,94,777-4779,EVERGREEN NATURAL RESOURCES - PORTABLE E,37.20247,-104.94012,2023/05/04 00:00:00+00
-106.96127,37.3032400000001,95,007-0013,WEBER SAND & GRAVEL - WEBER PIT #2,37.30324,-106.96127,2023/05/04 00:00:00+00
-104.84757,40.3048700000001,96,123-8691,"SRC ENERGY, INC. - MILNE T6N-R65W-S8 L01",40.30487,-104.84757,2023/05/04 00:00:00+00
-104.77348,39.32097,97,035-0192,SCHMIDT CONSTRUCTION - MENCENBERG       ,39.32097,-104.77348,2023/05/04 00:00:00+00
-104.82615,40.2059300000001,98,123-2397,KERR-MCGEE - X20340 34002868 PLATTEVILLE,40.20593,-104.82615,2023/05/04 00:00:00+00
-104.69313,40.6580500000001,99,123-8177,LONG'S PEAK DAIRY                       ,40.65805,-104.69313,2023/05/04 00:00:00+00
-104.34953,40.4055300000001,100,123-9398,BONANZA CREEK - ANTELOPE 21-17 ETC,40.40553,-104.34953,2023/05/04 00:00:00+00
-105.34015,39.64687,101,059-1312,SAFEWAY INC. - 10,39.64687,-105.34015,2023/05/04 00:00:00+00
-108.32922,40.96466,102,081-0366,WEXPRO COMPANY - JC DONNELL 15          ,40.96466,-108.32922,2023/05/04 00:00:00+00
-108.16522,39.51188,103,045-2212,CAERUS PICEANCE LLC - MESA 24,39.51188,-108.16522,2023/05/04 00:00:00+00
-104.90273,39.7563,104,031-1939,"DILLON COMPANIES, LLC- KING SOOPERS #093",39.7563,-104.90273,2023/05/04 00:00:00+00
-104.94336,39.785,105,031-1865,"PAXTON HARDWOODS, LLC - JACKSON ST",39.785,-104.94336,2023/05/04 00:00:00+00
-104.66307,40.30711,106,123-8534,Noble Tank Battery #415771318,40.30711,-104.66307,2023/05/04 00:00:00+00
-103.68612,38.5519500000001,107,073-0059,LINCOLN COUNTY,38.55195,-103.68612,2023/05/04 00:00:00+00
-104.80295,40.5321200000001,108,123-9329,"PDC Moody 31, 32, 41, 42-32D",40.53212,-104.80295,2023/05/04 00:00:00+00
-104.72371,40.32277,109,123-6917,PDC ENERGY - STROMBERGER FED T4N-R66W-S1,40.32277,-104.72371,2023/05/04 00:00:00+00
-104.67504,40.2337300000001,110,123-8251,KERR-MCGEE OIL & GAS -BATTERY #415750508,40.23373,-104.67504,2023/05/04 00:00:00+00
-104.9915,40.1167000000001,111,123-4236,K.P. KAUFFMAN - JILLSON #1-6,40.1167,-104.9915,2023/05/04 00:00:00+00
-104.91618,40.23875,112,123-4049,KERR-MCGEE 51206,40.23875,-104.91618,2023/05/04 00:00:00+00
-104.6026,40.3496000000001,113,123-9962,Noble Tank Battery #415828489,40.3496,-104.6026,2023/05/04 00:00:00+00
-104.61865,40.33593,114,123-2937,Noble Tank Battery #415779700,40.33593,-104.61865,2023/05/04 00:00:00+00
-104.59447,40.0361400000001,115,123-9F89,CURETON FRONT RANGE - TIGER C.S.,40.03614,-104.59447,2023/05/04 00:00:00+00
-104.80272,40.0805700000001,116,123-A100,"7-ELEVEN, INC. - #41243",40.08057,-104.80272,2023/05/04 00:00:00+00
-107.75662,38.8001199999999,117,029-0050,PETRO MARK CORP                         ,38.80012,-107.75662,2023/05/04 00:00:00+00
-105.02585,39.7957100000001,118,001-0548,HERMOSA VETERINARY CLINIC,39.79571,-105.02585,2023/05/04 00:00:00+00
-104.9752,39.8848600000001,119,001-1593,SEARS SERVICE CENTER,39.88486,-104.9752,2023/05/04 00:00:00+00
-104.69002,40.3969100000001,120,123-0271,SCHREIBERS AUTO GALLERY                 ,40.39691,-104.69002,2023/05/04 00:00:00+00
-104.99432,40.1791300000001,121,123-5048,KERR-MCGEE 62018,40.17913,-104.99432,2023/05/04 00:00:00+00
-104.9294,39.6527600000001,122,031-1419,"7-ELEVEN, INC. - STORE #35511",39.65276,-104.9294,2023/05/04 00:00:00+00
-107.39621,39.30916,123,097-0029,ROCKY MNTN NATURAL GAS - WOLF CREEK #71 ,39.30916,-107.39621,2023/05/04 00:00:00+00
-105.03887,39.55032,124,035-0438,IDEAL CARSTAR AUTO BODY,39.55032,-105.03887,2023/05/04 00:00:00+00
-104.76306,37.1433000000001,125,777-4694,EVERGREEN NAT. RESOURCES - TINA 32-27,37.1433,-104.76306,2023/05/04 00:00:00+00
-108.29904,40.8824900000001,126,081-0204,ANTLER ENERGY -POWDER WASH FEDERAL 28-11,40.88249,-108.29904,2023/05/04 00:00:00+00
-107.77479,39.52948,127,045-1744,COMCAST OF COLORADO/ FLORIDA INC        ,39.52948,-107.77479,2023/05/04 00:00:00+00
-104.72959,37.2600200000001,128,777-4764,EVERGREEN NAT. RES. - PORTABLE ENGINE,37.26002,-104.72959,2023/05/04 00:00:00+00
-104.54341,39.6527,129,005-1613,CRESTONE PEAK - GRIMM 34-4H,39.6527,-104.54341,2023/05/04 00:00:00+00
-104.93011,39.65326,130,031-2527,BP PRODUCTS NA- FORMER AMOCO 8338 EUDORA,39.65326,-104.93011,2023/05/04 00:00:00+00
-104.69801,40.4758000000001,131,123-0592,ROCKY MOUNTAIN TRANSLOAD                ,40.4758,-104.69801,2023/05/04 00:00:00+00
-104.8869,37.1490700000001,132,071-0308,TIMBER CREEK - XTO 216,37.14907,-104.8869,2023/05/04 00:00:00+00
-102.24695,38.0501,133,099-0088,"SULLIVAN, INC.",38.0501,-102.24695,2023/05/04 00:00:00+00
-104.73773,40.5664200000001,134,123-7043,"PETROLEUM DEV - TRACY 41, 42-23",40.56642,-104.73773,2023/05/04 00:00:00+00
-105.123,39.6230600000001,135,059-1294,DENVER WATER - BELLEVIEW PUMP STATION,39.62306,-105.123,2023/05/04 00:00:00+00
-104.99851,39.6137299999999,136,005-1437,DRINKWINE FAMILY MORTUARY,39.61373,-104.99851,2023/05/04 00:00:00+00
-104.79253,40.2587700000001,137,123-7781,KERR-MCGEE - 34003272,40.25877,-104.79253,2023/05/04 00:00:00+00
-105.03417,40.25429,138,123-A026,NICKEL ROAD - NOBLE PAD,40.25429,-105.03417,2023/05/04 00:00:00+00
-104.72249,40.15587,139,123-7510,KERR-MCGEE 62104,40.15587,-104.72249,2023/05/04 00:00:00+00
-105.06299,39.71833,140,059-0609,HARLAN INVESTMENT INC - 1ST AVE LAKEWOOD,39.71833,-105.06299,2023/05/04 00:00:00+00
-108.3127,40.9633700000001,141,081-0325,WEXPRO CO - HAL STEWART 5               ,40.96337,-108.3127,2023/05/04 00:00:00+00
-105.03567,40.1659200000001,142,123-9EE1,EXTRACTION O&G - FAIRVIEW PROD FACILITY,40.16592,-105.03567,2023/05/04 00:00:00+00
-104.42193,40.39122,143,123-9C07,BONANZA CREEK ENERGY - NORTH PLATTE K-22,40.39122,-104.42193,2023/05/04 00:00:00+00
-104.51147,39.77778,144,001-2212,RM INDUSTRIALS - RM RAIL PARK RECYCLE OP,39.77778,-104.51147,2023/05/04 00:00:00+00
-104.81667,40.4639600000001,145,123-6906,NOBLE ENERGY - 415779843,40.46396,-104.81667,2023/05/04 00:00:00+00
-108.60666,39.09553,146,077-0535,DILLON COMPANIES - CITY MARKET #451,39.09553,-108.60666,2023/05/04 00:00:00+00
-104.90703,37.00138,147,071-0417,OGRIS OPERATING - HR 33-10R,37.00138,-104.90703,2023/05/04 00:00:00+00
-104.61344,40.4706199999999,148,123-9D89,NOBLE ENERGY - STORIS E24 & MACKINAW A19,40.47062,-104.61344,2023/05/04 00:00:00+00
-105.10534,37.5397100000001,149,055-0023,CAPTUREPOINT LLC - LA VETA GAS PLANT,37.53971,-105.10534,2023/05/04 00:00:00+00
-104.10473,40.7125500000001,150,123-9BD8,NOBLE ENERGY - SHABLE FED T9N-R60W-S33,40.71255,-104.10473,2023/05/04 00:00:00+00
-108.12133,39.49873,151,045-0876,TEP ROCKY MTN - MV 53-28 TANK FAC,39.49873,-108.12133,2023/05/04 00:00:00+00
-104.96143,39.7331900000001,152,031-2202,GARDEN DEVELOPMENT- AMARANTH RESIDENCES,39.73319,-104.96143,2023/05/04 00:00:00+00
-107.52939,37.26062,153,067-1287,SIMCOE LLC - ALBRIGHT FEDERAL GAS UNIT 2,37.26062,-107.52939,2023/05/04 00:00:00+00
-104.9277,39.59545,154,005-0496,CST METRO LLC DBA CORNER STORE #4127,39.59545,-104.9277,2023/05/04 00:00:00+00
-104.7833,40.0147000000001,155,123-5698,KERR-MCGEE OIL & GAS - 36159241,40.0147,-104.7833,2023/05/04 00:00:00+00
-104.84655,39.9442800000001,156,001-2101,PDC ENERGY - SHARP 24-3-11HC,39.94428,-104.84655,2023/05/04 00:00:00+00
-104.71421,38.8899800000001,157,041-2013,CARMAX AUTO SUPERSTORES WEST COAST INC,38.88998,-104.71421,2023/05/04 00:00:00+00
-104.90939,37.2086900000001,158,777-4299,EVERGREEN NATURAL RESOURCES - PORT ENGIN,37.20869,-104.90939,2023/05/04 00:00:00+00
-105.00798,39.6699300000001,159,005-0524,SERVICE UNIFORM RENTAL,39.66993,-105.00798,2023/05/04 00:00:00+00
-104.56698,39.91866,160,123-6978,"HRM RESOURCES II, LLC HOSMER 43-32",39.91866,-104.56698,2023/05/04 00:00:00+00
-104.54188,40.2743900000001,161,123-2134,Noble Tank Battery #11301000,40.27439,-104.54188,2023/05/04 00:00:00+00
-104.85233,40.2903700000001,162,123-9523,SYNERGY RESOURCES - WOLFSON 23-15 23-16,40.29037,-104.85233,2023/05/04 00:00:00+00
-108.07132,38.7457000000001,163,029-0027,STINKER STORES - STINKER #319,38.7457,-108.07132,2023/05/04 00:00:00+00
-104.75019,40.2988200000001,164,123-9CE1,EXPEDITION WATER - EWS #3 (PECKHAM),40.29882,-104.75019,2023/05/04 00:00:00+00
-104.57301,40.5654,165,123-9CB2,"PDC - Dillard 20M-203, 20R-303, 443",40.5654,-104.57301,2023/05/04 00:00:00+00
-108.04134,39.4616000000001,166,045-2372,TEP ROCKY MTN - PA 24-6 WELL PAD,39.4616,-108.04134,2023/05/04 00:00:00+00
-104.93051,40.22445,167,123-3393,KERR-MCGEE 74310,40.22445,-104.93051,2023/05/04 00:00:00+00
-104.90206,39.86611,168,001-1286,PUBLIC SERVICE CO - MATERIAL DIST CNTR  ,39.86611,-104.90206,2023/05/04 00:00:00+00
-107.71109,39.46617,169,045-1116,CAERUS PICEANCE - C7 (002),39.46617,-107.71109,2023/05/04 00:00:00+00
-103.69304,38.03844,170,089-0025,CSU ANIMAL DISEASE DIAGNOSTIC LAB       ,38.03844,-103.69304,2023/05/04 00:00:00+00
-104.51139,40.2526100000001,171,123-2656,NOBLE ENERGY INC. BATTERY #11373900,40.25261,-104.51139,2023/05/04 00:00:00+00
-104.8689,39.89186,172,001-1248,EJ PAINTING & FIBERGLASS INC,39.89186,-104.8689,2023/05/04 00:00:00+00
-104.80002,40.1534300000001,173,123-1412,CRESTONE PEAK - IONE 32 8,40.15343,-104.80002,2023/05/04 00:00:00+00
-104.84281,40.2200500000001,174,123-3275,KERR-MCGEE - 34003430 GUNZNER,40.22005,-104.84281,2023/05/04 00:00:00+00
-105.07472,40.18674,175,013-1308,"DILLON COMPANIES, LLC- KING SOOPERS #102",40.18674,-105.07472,2023/05/04 00:00:00+00
-104.82726,39.37466,176,035-0683,"DILLON COMPANIES, LLC- KING SOOPERS #132",39.37466,-104.82726,2023/05/04 00:00:00+00
-108.32281,40.96285,177,081-0491,"QEPM GATHERING I, LLC - CARL ALLEN 20",40.96285,-108.32281,2023/05/04 00:00:00+00
-105.06588,39.7846700000001,178,059-1943,MALESICH & SHIREY FUNERAL HOME          ,39.78467,-105.06588,2023/05/04 00:00:00+00
-104.66205,40.32435,179,123-9158,NOBLE ENERGY - BETZ REICHERT,40.32435,-104.66205,2023/05/04 00:00:00+00
-104.57425,40.30489,180,123-9793,Noble Tank Battery #415825681,40.30489,-104.57425,2023/05/04 00:00:00+00
-104.93984,39.8771,181,001-0687,DENO'S COUNTRY STORE                    ,39.8771,-104.93984,2023/05/04 00:00:00+00
-104.68032,40.2560300000001,182,123-3832,KERR-MCGEE - 34002876 BEEBE DRAW UPRR,40.25603,-104.68032,2023/05/04 00:00:00+00
-104.5127,40.4327,183,123-9882,NOBLE ENERGY - FOEMEYER FOE,40.4327,-104.5127,2023/05/04 00:00:00+00
-105.22889,39.88844,184,777-4234,BURNCO COLORADO - PORTABLE SCREEN/ENGINE,39.88844,-105.22889,2023/05/04 00:00:00+00
-105.07705,40.4944100000001,185,069-0369,7-ELEVEN #32276                         ,40.49441,-105.07705,2023/05/04 00:00:00+00
-105.0827,39.9685700000001,186,013-1254,EXTRACTION O&G - PACIFIC 1-14,39.96857,-105.0827,2023/05/04 00:00:00+00
-107.83026,37.24174,187,067-0124,CHEVRON MIDCONTINENT- CRADER 2-2        ,37.24174,-107.83026,2023/05/04 00:00:00+00
-104.76644,40.3097199999999,188,123-9027,Noble Tank Battery #415805555,40.30972,-104.76644,2023/05/04 00:00:00+00
-104.47912,40.3488400000001,189,123-6000,HIGHPOINT - ROTHE SEC 31 (ROTHE 23-31,40.34884,-104.47912,2023/05/04 00:00:00+00
-108.60718,40.99386,190,081-0499,WEXPRO CO - HIAWATHA UNI,40.99386,-108.60718,2023/05/04 00:00:00+00
-104.77176,40.0185400000001,191,123-9F0A,PDC ENERGY - RAEL 34-4 2HC,40.01854,-104.77176,2023/05/04 00:00:00+00
-104.86819,39.3728300000001,192,777-2322,ALPINE DEMOLITION                       ,39.37283,-104.86819,2023/05/04 00:00:00+00
-107.71768,37.2484700000001,193,067-1227,SIMCOE LLC - RICHARDSON GAS UNIT D1,37.24847,-107.71768,2023/05/04 00:00:00+00
-108.9487,37.5417200000001,194,083-0039,SEELEY OIL CO - ISLAND BUTTE B,37.54172,-108.9487,2023/05/04 00:00:00+00
-104.96858,39.74761,195,031-1615,KAISER PERMANENTE FRANKLIN MEDICAL CENTE,39.74761,-104.96858,2023/05/04 00:00:00+00
-104.80335,40.13358,196,123-5043,KERR-MCGEE OIL & GAS - 34003936,40.13358,-104.80335,2023/05/04 00:00:00+00
-104.77652,38.91387,197,041-0465,KYN INC. DBA KWIKWAY 742                ,38.91387,-104.77652,2023/05/04 00:00:00+00
-104.43627,40.46842,198,123-7360,Noble Tank Battery #415682836,40.46842,-104.43627,2023/05/04 00:00:00+00
-104.67503,39.62672,199,005-1552,AURORA WATER - PBWPF                    ,39.62672,-104.67503,2023/05/04 00:00:00+00
-104.86959,40.1469500000001,200,123-99B3,KERR-MCGEE 62180,40.14695,-104.86959,2023/05/04 00:00:00+00
-107.69355,39.4825200000001,201,045-0708,ENCANA - K32,39.48252,-107.69355,2023/05/04 00:00:00+00
-104.56534,40.3363500000001,202,123-4783,PATINA REISTAD 5-1 DUP SEE 123.4350,40.33635,-104.56534,2023/05/04 00:00:00+00
-104.69389,40.32879,203,123-2741,Noble Tank Battery #10033100,40.32879,-104.69389,2023/05/04 00:00:00+00
-104.99576,40.3495300000001,204,069-0521,SRC ENERGY - MURDOCK 24-34,40.34953,-104.99576,2023/05/04 00:00:00+00
-104.51819,40.4030500000001,205,123-9CA4,NOBLE ENERGY - HOLMAN COCKROFT T5N-R64W-,40.40305,-104.51819,2023/05/04 00:00:00+00
-105.21716,39.83706,206,777-2436,DILLON CONSTRUCTION                     ,39.83706,-105.21716,2023/05/04 00:00:00+00
-104.61414,40.2524400000001,207,123-4989,Noble Tank Battery #10063600,40.25244,-104.61414,2023/05/04 00:00:00+00
-104.9814,39.87978,208,001-1554,CALIBER COLLISION - THORNTON - #0853,39.87978,-104.9814,2023/05/04 00:00:00+00
-104.82494,40.5449600000001,209,123-A0DC,BAYSWATER E&P - COT EAST & WEST BATTERY,40.54496,-104.82494,2023/05/04 00:00:00+00
-104.51538,40.23754,210,123-9573,Noble Tank Battery #415860501,40.23754,-104.51538,2023/05/04 00:00:00+00
-105.1684,38.4038500000001,211,043-0126,"FREMONT PAVING & REDI-MIX, INC.",38.40385,-105.1684,2023/05/04 00:00:00+00
-105.12315,40.0672399999999,212,013-1262,"EXTRACTION O&G - VON REYN #1, MC9-3",40.06724,-105.12315,2023/05/04 00:00:00+00
-104.90073,40.1968200000001,213,123-0560,"RAPTOR MATERIALS - KURTZ, HEINTZELMAN, B",40.19682,-104.90073,2023/05/04 00:00:00+00
-104.81509,40.17368,214,123-1976,KERR-MCGEE - 34002654 SAKATA,40.17368,-104.81509,2023/05/04 00:00:00+00
-104.76562,39.52696,215,035-0159,CST METRO LLC DBA CORNER STORE #4137,39.52696,-104.76562,2023/05/04 00:00:00+00
-105.04854,40.0862500000001,216,123-1643,"K.P. KAUFFMAN - BECKY #1, 5-6",40.08625,-105.04854,2023/05/04 00:00:00+00
-107.68758,39.4806199999999,217,045-0705,ENCANA OIL & GAS (USA) INC. - J32,39.48062,-107.68758,2023/05/04 00:00:00+00
-107.52801,37.2684300000001,218,067-1196,SIMCOE LLC - FEDERAL 28-1 1,37.26843,-107.52801,2023/05/04 00:00:00+00
-104.52596,40.1615600000001,219,123-9C8B,"PDC-WASTE MANAGEMENT 2I-401; 2L-201, 441",40.16156,-104.52596,2023/05/04 00:00:00+00
-108.59186,37.3498599999999,220,083-0042,FRALEY & CO INC,37.34986,-108.59186,2023/05/04 00:00:00+00
-104.615,39.8894200000001,221,031-1969,CITY & COUNTY OF DENVER - BOX ELDER L,39.88942,-104.615,2023/05/04 00:00:00+00
-104.89631,40.33186,222,123-8440,"PDC ENERGY - GOLD 22-9U, 32-9U, & 9NU",40.33186,-104.89631,2023/05/04 00:00:00+00
-104.52743,39.96295,223,001-2040,HRM RESOURCES II - ROSE # 13-14,39.96295,-104.52743,2023/05/04 00:00:00+00
-104.74348,40.5391900000001,224,123-9BE0,"PDC - LEFFLER 26Q-421, 26T-421",40.53919,-104.74348,2023/05/04 00:00:00+00
-104.9051,40.26181,225,123-5755,KERR-MCGEE - 36925040,40.26181,-104.9051,2023/05/04 00:00:00+00
-104.62883,40.3049799999999,226,123-7191,Noble Tank Battery #415668561,40.30498,-104.62883,2023/05/04 00:00:00+00
-107.86196,39.54199,227,045-2071,TEP ROCKY MTN - RWF 512-11,39.54199,-107.86196,2023/05/04 00:00:00+00
-104.58623,38.9538600000001,228,041-2096,VERIZON WIRELESS - MEADOW LAKE,38.95386,-104.58623,2023/05/04 00:00:00+00
-105.27561,40.0163499999999,229,013-0323,CIRCLE K STORE # 2709851                ,40.01635,-105.27561,2023/05/04 00:00:00+00
-108.19242,39.8914900000001,230,103-0464,OVERLAND PASS - JL DAVIS JUNCTION,39.89149,-108.19242,2023/05/04 00:00:00+00
-108.55956,39.02742,231,077-0133,ELAM CONST INC MULE FARM GRAVEL PIT     ,39.02742,-108.55956,2023/05/04 00:00:00+00
-108.13399,39.5165500000001,232,045-0859,WILLIAMS PRODUCTION RMT - GM 21-20      ,39.51655,-108.13399,2023/05/04 00:00:00+00
-104.8149,40.1500200000001,233,123-4707,KERR-MCGEE 62319,40.15002,-104.8149,2023/05/04 00:00:00+00
-104.75432,39.9864499999999,234,001-2060,7-ELEVEN STORE 36017,39.98645,-104.75432,2023/05/04 00:00:00+00
-104.29915,40.3617600000001,235,123-9E22,HIGHPOINT - ANSCHUTZ STATE 5-62-35_36,40.36176,-104.29915,2023/05/04 00:00:00+00
-104.66169,39.7723800000001,236,001-2270,CRESTONE PEAK - SCHUH 3-65 21-20,39.77238,-104.66169,2023/05/04 00:00:00+00
-103.62268,38.0153900000001,237,777-3336,OTERO COUNTY                            ,38.01539,-103.62268,2023/05/04 00:00:00+00
-102.36518,39.93105,238,125-2061,FOUNDATION ENERGY - WITTE 21-36,39.93105,-102.36518,2023/05/04 00:00:00+00
-104.03503,40.71516,239,123-9BCA,VERDAD RESOURCES - SHULL 25 MULTI-PAD,40.71516,-104.03503,2023/05/04 00:00:00+00
-104.82081,38.8349900000001,240,041-0306,COLORADO SPRINGS CITY CITY AUDITORIUM   ,38.83499,-104.82081,2023/05/04 00:00:00+00
-107.90099,39.51335,241,045-0973,TEP ROCKY MTN - RMV 7-21,39.51335,-107.90099,2023/05/04 00:00:00+00
-104.67624,38.8788,242,041-0093,"WEATHERFORD ARTIFICIAL LIFT SYSTEMS, LLC",38.8788,-104.67624,2023/05/04 00:00:00+00
-105.27128,38.5006800000001,243,043-0146,"BYZANTINE QUARRY, LLC - BYZANTINE QUARRY",38.50068,-105.27128,2023/05/04 00:00:00+00
-105.25805,40.02955,244,013-0396,APRO DBA UNITED PACIFIC - MY GOODS #6510,40.02955,-105.25805,2023/05/04 00:00:00+00
-104.90254,37.14241,245,071-0319,OGRIS OPERATING - GE 29-07,37.14241,-104.90254,2023/05/04 00:00:00+00
-104.64125,40.02906,246,123-9704,VERDAD RESOURCES - ROWE 13N-27HZ PAD,40.02906,-104.64125,2023/05/04 00:00:00+00
-104.93495,37.1882000000001,247,071-0918,PIONEER NATURAL RES. - MONTOYA 12-7V,37.1882,-104.93495,2023/05/04 00:00:00+00
-104.8867,40.30673,248,123-9408,SYNERGY RESOURCES CORP. - STATE #16-1,40.30673,-104.8867,2023/05/04 00:00:00+00
-104.66808,40.18814,249,123-9FD3,KERR-MCGEE - 36889899 CANNON,40.18814,-104.66808,2023/05/04 00:00:00+00
-104.72018,40.2144700000001,250,123-2273,KERR-MCGEE OIL & GAS - 34002075,40.21447,-104.72018,2023/05/04 00:00:00+00
-104.90474,40.11136,251,123-7819,KERR-MCGEE 62212,40.11136,-104.90474,2023/05/04 00:00:00+00
-104.75692,40.18066,252,123-5169,CRESTONE PEAK - DEVORE 6-4-34,40.18066,-104.75692,2023/05/04 00:00:00+00
-104.84902,40.4596599999999,253,123-6260,"VESTAS BLADES AMERICA, INC",40.45966,-104.84902,2023/05/04 00:00:00+00
-104.89789,40.31763,254,123-7515,KERR-MCGEE OIL & GAS - 35015497,40.31763,-104.89789,2023/05/04 00:00:00+00
-104.71311,40.2490100000001,255,123-3842,KERR-MCGEE - BATTERY# 70100,40.24901,-104.71311,2023/05/04 00:00:00+00
-106.13902,38.82674,256,777-4492,ACA PRODUCTS - AVERY PIT,38.82674,-106.13902,2023/05/04 00:00:00+00
-104.9564,39.7945100000001,257,001-0670,"OFFEN PETROLEUM, INC. DBA TARTAN TEXACO ",39.79451,-104.9564,2023/05/04 00:00:00+00
-104.82346,40.28241,258,123-9D8A,"RAM LAND 30K-123,, 403; 30O-303-443",40.28241,-104.82346,2023/05/04 00:00:00+00
-104.2403,40.8784000000001,259,123-8398,"EXTRACTION O&G - BVW 31-13/KALEO 1,16-31",40.8784,-104.2403,2023/05/04 00:00:00+00
-104.80899,40.30793,260,123-4889,PDC ENERGY - JOHNSON KNUTSON T4N-R66W-S1,40.30793,-104.80899,2023/05/04 00:00:00+00
-104.47075,40.55157,261,123-99C0,NOBLE ENERGY - GRIGSBY PC T7N-R63W-S30,40.55157,-104.47075,2023/05/04 00:00:00+00
-107.88747,39.51401,262,045-0603,TEP ROCKY MTN - RMV 139-21,39.51401,-107.88747,2023/05/04 00:00:00+00
-108.17118,39.55566,263,045-1875,CAERUS PICEANCE - BERRY F01 697,39.55566,-108.17118,2023/05/04 00:00:00+00
-108.0504,39.41041,264,045-2198,CAERUS PICEANCE - PH25,39.41041,-108.0504,2023/05/04 00:00:00+00
-105.0014,40.1234200000001,265,123-3786,CRESTONE PEAK - EDITH ANN 1-2 BATTERY,40.12342,-105.0014,2023/05/04 00:00:00+00
-104.3899,40.51913,266,123-7437,Noble Tank Battery #415689103,40.51913,-104.3899,2023/05/04 00:00:00+00
-104.78471,40.0998900000001,267,123-6046,KP KAUFFMAN CO - CARTER #21-33,40.09989,-104.78471,2023/05/04 00:00:00+00
-109.01222,39.9521800000001,268,103-0696,KGH OPERATING COMPANY - FEDERAL 24-2,39.95218,-109.01222,2023/05/04 00:00:00+00
-103.86066,40.74808,269,123-99BF,NOBLE ENERGY - IGO CREEK PC T9N-R58W-S16,40.74808,-103.86066,2023/05/04 00:00:00+00
-105.0022,40.394,270,777-1181,COULSON EXCAVATING COMPANY INC          ,40.394,-105.0022,2023/05/04 00:00:00+00
-106.937,38.5439900000001,271,051-0060,CF ALTITUDE - ALTA CONVIENCE 3850,38.54399,-106.937,2023/05/04 00:00:00+00
-105.04874,39.56125,272,035-0090,"AGGREGATE INDUSTRIES-WCR, INC-RIVERVIEW",39.56125,-105.04874,2023/05/04 00:00:00+00
-106.40321,40.0342100000001,273,049-0039,"GRAND GRAVEL, LLC - YUST PIT",40.03421,-106.40321,2023/05/04 00:00:00+00
-105.58152,38.3781300000001,274,777-3400,FREMONT COUNTY - PORT SCREEN            ,38.37813,-105.58152,2023/05/04 00:00:00+00
-104.58588,40.4426900000001,275,123-1484,"PDC ENERGY - MARCY 31-32, 42-31",40.44269,-104.58588,2023/05/04 00:00:00+00
-104.86394,40.40166,276,123-9D99,AGRIUM - GREELEY ESN PILOT PLANT,40.40166,-104.86394,2023/05/04 00:00:00+00
-106.04511,39.49386,277,117-0054,7-ELEVEN #32267                         ,39.49386,-106.04511,2023/05/04 00:00:00+00
-102.71503,40.0292800000001,278,125-2084,SHELDON KYE - AGEN SOLUTIONS YUMA 1,40.02928,-102.71503,2023/05/04 00:00:00+00
-104.94076,37.1772400000001,279,777-4781,EVERGREEN NATURAL RESOURCES - PORTABLE E,37.17724,-104.94076,2023/05/04 00:00:00+00
-104.90743,37.16437,280,071-0288,TIMBER CREEK - XTO 441,37.16437,-104.90743,2023/05/04 00:00:00+00
-104.8105,39.7404900000001,281,001-0802,STINKER STORES - STINKER #334,39.74049,-104.8105,2023/05/04 00:00:00+00
-107.73772,39.49861,282,045-0844,CAERUS PICEANCE - H26NW,39.49861,-107.73772,2023/05/04 00:00:00+00
-102.24743,39.8166300000001,283,125-2018,FOUNDATION ENERGY - ALLEN 31-12,39.81663,-102.24743,2023/05/04 00:00:00+00
-108.99711,39.2586400000001,284,077-0350,ETC CANYON PIPELINE - PREMIER BAR X     ,39.25864,-108.99711,2023/05/04 00:00:00+00
-104.33319,40.38453,285,123-9DF2,BONANZA CREEK - ANTELOPE CPF 13-21,40.38453,-104.33319,2023/05/04 00:00:00+00
-104.80368,38.8806300000001,286,041-1615,MR. BODYSHOP,38.88063,-104.80368,2023/05/04 00:00:00+00
-108.78474,37.3325300000001,287,777-1246,MONTEZUMA COUNTY                        ,37.33253,-108.78474,2023/05/04 00:00:00+00
-104.51486,40.4009800000001,288,123-6390,Noble Tank Battery #11377300,40.40098,-104.51486,2023/05/04 00:00:00+00
-104.6772,40.1754,289,123-8429,KERR-MCGEE OIL & GAS -BATTERY #415770183,40.1754,-104.6772,2023/05/04 00:00:00+00
-104.88196,37.2780500000001,290,071-0905,EVERGREEN NATURAL RESOURCES - LEOPARD 11,37.27805,-104.88196,2023/05/04 00:00:00+00
-103.89606,40.7343500000001,291,123-9D1C,VERDAD RESOURCES - BRINGELSON 8-20 MULTI,40.73435,-103.89606,2023/05/04 00:00:00+00
-107.53659,37.2410200000001,292,067-1268,SIMCOE LLC - FEDERAL 4-1 2,37.24102,-107.53659,2023/05/04 00:00:00+00
-104.88236,37.10713,293,071-0154,TIMBER CREEK - XTO 268,37.10713,-104.88236,2023/05/04 00:00:00+00
-104.16756,40.6827400000001,294,123-9914,CIVITAS NORTH - VAWTER 1-11-41-8-61,40.68274,-104.16756,2023/05/04 00:00:00+00
-105.00682,39.7847800000001,295,001-2097,7E CO HOLDINGS - 7ECO7 - 7-11 PECOS,39.78478,-105.00682,2023/05/04 00:00:00+00
-108.34589,39.5718200000001,296,045-1391,CHEVRON USA INC - PICEANCE CENTRAL PROCE,39.57182,-108.34589,2023/05/04 00:00:00+00
-104.80979,39.9293700000001,297,001-2273,PDC ENERGY - EDMUNDSON LE PAD,39.92937,-104.80979,2023/05/04 00:00:00+00
-104.62759,40.3806900000001,298,123-4427,"PDC ENERGY - BROWN 23 SEC HZ; 23-43",40.38069,-104.62759,2023/05/04 00:00:00+00
-104.61944,40.1258200000001,299,123-8260,KERR-MCGEE 62370 - POWERS JESSEE UN A 1,40.12582,-104.61944,2023/05/04 00:00:00+00
-103.81629,40.77269,300,123-9DFF,NOBLE ENERGY - LD01 & LD12 ECONODE,40.77269,-103.81629,2023/05/04 00:00:00+00
-104.91613,38.87672,301,041-0001,CITY OF COLO SPRINGS - SNYDER QUARRY,38.87672,-104.91613,2023/05/04 00:00:00+00
-104.58391,40.4621800000001,302,123-4105,"NOBLE ENERGY, INC. - 415860940",40.46218,-104.58391,2023/05/04 00:00:00+00
-104.70963,37.15673,303,071-0746,PIONEER NAT RES - FAT TIRE 33-19        ,37.15673,-104.70963,2023/05/04 00:00:00+00
-107.69849,39.48832,304,045-0555,CAERUS PICEANCE - D32NEB,39.48832,-107.69849,2023/05/04 00:00:00+00
-103.37904,40.04829,305,121-0265,WESTERN OPERATING - FORBES 1-14,40.04829,-103.37904,2023/05/04 00:00:00+00
-104.98668,40.4351500000001,306,069-0449,MINI MART - LOAF N JUG 823,40.43515,-104.98668,2023/05/04 00:00:00+00
-104.89083,36.99904,307,071-0414,TIMBER CREEK - 151D2325,36.99904,-104.89083,2023/05/04 00:00:00+00
-107.64156,39.51543,308,045-2294,GRIZZLY OPERATING - 17029 DIXON WEST 42,39.51543,-107.64156,2023/05/04 00:00:00+00
-104.84824,38.8971300000001,309,041-0307,"SONOCO PROTECTIVE SOLUTIONS, INC.",38.89713,-104.84824,2023/05/04 00:00:00+00
-104.60986,39.9309800000001,310,123-6975,NOBLE - ENG-81439800  (SEE 001-1653),39.93098,-104.60986,2023/05/04 00:00:00+00
-107.87846,39.5535,311,045-2184,TEP ROCKY MTN - NR 23-3,39.5535,-107.87846,2023/05/04 00:00:00+00
-104.44034,40.27049,312,123-6084,"NOBLE ENERGY, INC.-BATTERY # 91342500",40.27049,-104.44034,2023/05/04 00:00:00+00
-104.44327,40.9724900000001,313,123-9403,HIGHPOINT - FOX CREEK 6-33H,40.97249,-104.44327,2023/05/04 00:00:00+00
-104.21556,40.7398200000001,314,123-9B29,NOBLE ENERGY - KEOTA GAS PLANT,40.73982,-104.21556,2023/05/04 00:00:00+00
-108.70356,40.9759900000001,315,081-0275,WEXPRO CO - W.B. LASHER #7,40.97599,-108.70356,2023/05/04 00:00:00+00
-104.93345,39.78891,316,031-2157,NRG RELIABILITY SOLUTIONS-MILE HI BAKERY,39.78891,-104.93345,2023/05/04 00:00:00+00
-104.8572,40.2615500000001,317,777-3322,MARTIN MARIETTA MTRLS - SCREEN 55029,40.26155,-104.8572,2023/05/04 00:00:00+00
-107.90309,39.45182,318,045-1831,CAERUS PICEANCE - RULISON COMPR. STN,39.45182,-107.90309,2023/05/04 00:00:00+00
-105.1365,38.3961800000001,319,043-0181,AUSCO PETROLEUM - ELLIOT NESS 22-17 PAD,38.39618,-105.1365,2023/05/04 00:00:00+00
-108.47622,39.98185,320,103-0660,LARAMIE ENERGY - BDU F11X 199 UIC WELL,39.98185,-108.47622,2023/05/04 00:00:00+00
-105.13792,39.78491,321,059-0133,DI GRAPHICS,39.78491,-105.13792,2023/05/04 00:00:00+00
-104.58153,40.33567,322,123-5213,Noble Tank Battery #415779789,40.33567,-104.58153,2023/05/04 00:00:00+00
-104.73682,40.4222800000001,323,123-5611,SAFEWAY INC. - 2918,40.42228,-104.73682,2023/05/04 00:00:00+00
-107.85606,37.2229000000001,324,067-0176,"BASIN CO-OP, INC. - SEE 0670241         ",37.2229,-107.85606,2023/05/04 00:00:00+00
-108.2178,39.52842,325,045-1705,LARAMIE ENERGY - 697-16-16,39.52842,-108.2178,2023/05/04 00:00:00+00
-104.4313,40.4009,326,123-9359,Noble Tank Battery #415811561,40.4009,-104.4313,2023/05/04 00:00:00+00
-104.18655,40.35566,327,123-A0C9,HIGHPOINT - ANSCHUTZ EQUUS FARMS,40.35566,-104.18655,2023/05/04 00:00:00+00
-102.89886,38.45334,328,061-0012,KIOWA COUNTY - BARNETT PIT,38.45334,-102.89886,2023/05/04 00:00:00+00
-104.99625,39.86307,329,001-1207,CF ALTITUDE -ALTA CONVENIENCE #6123,39.86307,-104.99625,2023/05/04 00:00:00+00
-102.3413,38.8844800000001,330,017-0264,MULL DRILLING CO - CHAMPLIN ALDRICH,38.88448,-102.3413,2023/05/04 00:00:00+00
-104.84651,39.78102,331,031-1744,SUNCOR - 2706294                        ,39.78102,-104.84651,2023/05/04 00:00:00+00
-104.65179,40.4117900000001,332,123-2531,EXTRACTION O&G - KING HA 23-10,40.41179,-104.65179,2023/05/04 00:00:00+00
-108.13282,39.53541,333,045-0637,CAERUS PICEANCE - GARDEN GULCH C.S.,39.53541,-108.13282,2023/05/04 00:00:00+00
-104.96264,39.4381900000001,334,035-0442,INTEGRATED SURGICAL SCIENCES,39.43819,-104.96264,2023/05/04 00:00:00+00
-104.91356,37.2460800000001,335,071-0904,EVERGREEN NATURAL RESOURCES - LIGHTNING,37.24608,-104.91356,2023/05/04 00:00:00+00
-104.51899,40.59328,336,123-7725,Noble Tank Battery #415713805,40.59328,-104.51899,2023/05/04 00:00:00+00
-104.74692,40.0572,337,123-0185,KERR-MCGEE GATHERING - DOUGAN C.S.,40.0572,-104.74692,2023/05/04 00:00:00+00
-104.88718,40.0161600000001,338,123-9B91,NGL WATER SOLUTIONS DJ - C-2,40.01616,-104.88718,2023/05/04 00:00:00+00
-104.86367,38.9047100000001,339,041-0784,CF ALTITUDE - ALTA CONVIENCE 6008,38.90471,-104.86367,2023/05/04 00:00:00+00
-105.00236,40.3939300000001,340,777-3320,WARD CONSTRUCTION- PORT GENSET          ,40.39393,-105.00236,2023/05/04 00:00:00+00
-104.7925,39.73753,341,005-1375,AURORA PUBLIC SCHOOLS - FACILITIES DEPT ,39.73753,-104.7925,2023/05/04 00:00:00+00
-104.71797,40.23784,342,123-3537,KERR-MCGEE OIL & GAS - BATTERY #11305500,40.23784,-104.71797,2023/05/04 00:00:00+00
-103.99923,39.7935200000001,343,001-1848,KP KAUFFMAN - DNR HARTMAN-STATE #11-16,39.79352,-103.99923,2023/05/04 00:00:00+00
-104.76712,38.8909,344,041-0484,CST METRO LLC DBA CORNER STORE #693,38.8909,-104.76712,2023/05/04 00:00:00+00
-104.99584,39.6684500000001,345,031-0194,HARTSON ENT INC                         ,39.66845,-104.99584,2023/05/04 00:00:00+00
-106.36816,39.1885,346,065-0029,ACA PRODUCTS INC. - PINE RIDGE PIT,39.1885,-106.36816,2023/05/04 00:00:00+00
-104.846,37.2398400000001,347,071-0925,EVERGREEN NATURAL RESOURCES - BENTLEY 14,37.23984,-104.846,2023/05/04 00:00:00+00
-102.86379,38.87075,348,017-0098,ANADARKO E&P - RHOADES #1 13-35       ,38.87075,-102.86379,2023/05/04 00:00:00+00
-108.15068,39.1768800000001,349,777-1422,UNIVERSAL COMPRESSION (AJAX DPC-80)     ,39.17688,-108.15068,2023/05/04 00:00:00+00
-104.7972,40.3229400000001,350,123-7993,"NOBLE ENERGY, INC.",40.32294,-104.7972,2023/05/04 00:00:00+00
-108.30317,37.34371,351,083-0114,ASPEN WOOD PRODUCTS,37.34371,-108.30317,2023/05/04 00:00:00+00
-104.99924,39.7558400000001,352,031-0041,PUBLIC SERVICE CO - DENVER STEAM PLT,39.75584,-104.99924,2023/05/04 00:00:00+00
-104.61176,40.3190999999999,353,123-8531,Noble Tank Battery #415771162,40.3191,-104.61176,2023/05/04 00:00:00+00
-102.61092,38.0949900000001,354,099-0046,"DRAGON PRODUCTS, LLC",38.09499,-102.61092,2023/05/04 00:00:00+00
-108.02765,39.4726100000001,355,045-1170,TEP ROCKY MTN - GV 81-5,39.47261,-108.02765,2023/05/04 00:00:00+00
-104.45636,40.5226800000001,356,123-5441,"PDC - Bixler 31, 32-5",40.52268,-104.45636,2023/05/04 00:00:00+00
-104.64276,40.4613400000001,357,123-9D73,NGL CRUDE TERMINALS - LUCERNE STATION,40.46134,-104.64276,2023/05/04 00:00:00+00
-104.82689,40.3406400000001,358,123-9E33,"PDC ENERGY - BERNHARDT 6G-323,403;",40.34064,-104.82689,2023/05/04 00:00:00+00
-104.96707,39.7950299999999,359,001-0537,"GENERAL SCRAP, INC. DBA EVRAZ N.A.",39.79503,-104.96707,2023/05/04 00:00:00+00
-105.31556,39.63669,360,059-0624,STINKER STORES - STINKER #341,39.63669,-105.31556,2023/05/04 00:00:00+00
-104.61778,38.3207500000001,361,101-1118,JRS COUNTRY STORE NO. 214,38.32075,-104.61778,2023/05/04 00:00:00+00
-104.21814,40.88399,362,123-7482,NOBLE ENERGY - 415779504                ,40.88399,-104.21814,2023/05/04 00:00:00+00
-107.80726,37.24208,363,067-0123,44 CANYON LLC C/O HALLWOOD PETROLUEM INC,37.24208,-107.80726,2023/05/04 00:00:00+00
-104.81813,37.15247,364,071-0675,EVERGREEN NATURAL RESOURCES - SHIPSTONES,37.15247,-104.81813,2023/05/04 00:00:00+00
-105.22572,40.0142200000001,365,013-0434,AJ INVESTMENTS - SHORTSTOP ARAPAHOE,40.01422,-105.22572,2023/05/04 00:00:00+00
-104.69152,40.4663300000001,366,123-4488,"PETROLEUM DEV Monson 23-20, 24-20",40.46633,-104.69152,2023/05/04 00:00:00+00
-107.88183,39.5304900000001,367,045-1133,TEP ROCKY MTN - RWF 311-15,39.53049,-107.88183,2023/05/04 00:00:00+00
-103.8703,40.7890700000001,368,123-9E20,FUNDARE - RAZOR 33 CENTRAL,40.78907,-103.8703,2023/05/04 00:00:00+00
-107.52399,40.6187300000001,369,081-0592,MOUNTAINWEST PIPELINE - ML23/26/27,40.61873,-107.52399,2023/05/04 00:00:00+00
-104.81249,38.8738400000001,370,041-2175,"MAVERIK, INC - #566",38.87384,-104.81249,2023/05/04 00:00:00+00
-104.90259,40.47967,371,123-0429,HAISTON OIL CO                          ,40.47967,-104.90259,2023/05/04 00:00:00+00
-106.1199,37.60875,372,105-0040,MARIO BASSI AND JOSEPHINE BASSI,37.60875,-106.1199,2023/05/04 00:00:00+00
-102.9505,38.0973900000001,373,777-3530,RIVERSIDE AGGREGATES - PORT SCREEN      ,38.09739,-102.9505,2023/05/04 00:00:00+00
-108.17723,40.11963,374,103-0187,ENCANA - WRD UNIT 28-11,40.11963,-108.17723,2023/05/04 00:00:00+00
-104.60968,40.4113,375,123-4397,BURNCO COLORADO - NISSEN FARM RESOURCE,40.4113,-104.60968,2023/05/04 00:00:00+00
-107.59289,37.25524,376,067-1240,SIMCOE LLC - STATE OF COLORADO AW4,37.25524,-107.59289,2023/05/04 00:00:00+00
-104.92621,37.13371,377,071-0323,TIMBER CREEK - XTO 218 & XTO 513,37.13371,-104.92621,2023/05/04 00:00:00+00
-104.95163,39.8253200000001,378,001-0570,LAWRENCE CONSTRUCTION CO                ,39.82532,-104.95163,2023/05/04 00:00:00+00
-104.42971,40.4375899999999,379,123-5969,SEE 123-6233 PDC - WELLS RANCH 14-34,40.43759,-104.42971,2023/05/04 00:00:00+00
-104.48663,40.4505399999999,380,123-9C1D,NOBLE ENERGY - FAIRMEADOWS 1-30 & 3-30,40.45054,-104.48663,2023/05/04 00:00:00+00
-104.67536,40.2618699999999,381,123-9EC7,Noble Tank Battery 415860937,40.26187,-104.67536,2023/05/04 00:00:00+00
-104.96757,39.8280300000001,382,001-2220,A CHOICE CREMATION - S&H CREMATION SERV,39.82803,-104.96757,2023/05/04 00:00:00+00
-105.28184,40.0298300000001,383,013-0587,CIRCLE K STORE # 2709865                ,40.02983,-105.28184,2023/05/04 00:00:00+00
-103.91177,38.07518,384,777-0928,MARTIN MARIETTA MTRLS - CRUSHER 28F0595,38.07518,-103.91177,2023/05/04 00:00:00+00
-104.88822,40.20206,385,123-1728,KERR-MCGEE - 36155300 RALPH NIX PRODUCE,40.20206,-104.88822,2023/05/04 00:00:00+00
-108.09964,39.52121,386,045-2190,CAERUS PICEANCE - SCHOOL HOUSE POINT OM,39.52121,-108.09964,2023/05/04 00:00:00+00
-104.8941,37.13435,387,777-4070,TIMBER CREEK - PORTABLE WELLHEAD ENGINE,37.13435,-104.8941,2023/05/04 00:00:00+00
-104.78949,39.69629,388,005-1488,CIRCLE K STORES - CORNER STORE #1716,39.69629,-104.78949,2023/05/04 00:00:00+00
-104.56551,39.71175,389,005-1709,CRESTONE PEAK - TIBERIUS 4-64 8-7 4CH,39.71175,-104.56551,2023/05/04 00:00:00+00
-104.948,38.29224,390,043-0133,"RANCH LAND, LLC - ROCK PIT #1",38.29224,-104.948,2023/05/04 00:00:00+00
-107.84663,40.8878899999999,391,081-0257,WESTERN GAS RESOURCES - EVANS 41-29,40.88789,-107.84663,2023/05/04 00:00:00+00
-104.78514,40.3133500000001,392,123-5249,PDC ENERGY - KAWATA T4N-R66W-S16 L01,40.31335,-104.78514,2023/05/04 00:00:00+00
-105.01441,40.05367,393,123-4413,KERR-MCGEE - 34002480 ST OF COLO,40.05367,-105.01441,2023/05/04 00:00:00+00
-108.21193,39.87669,394,103-0424,CAERUS PICEANCE - PICEANCE CREEK UNIT F2,39.87669,-108.21193,2023/05/04 00:00:00+00
-104.98778,39.6744200000001,395,031-0850,ISLEY'S BODY SHOP                       ,39.67442,-104.98778,2023/05/04 00:00:00+00
-104.77192,38.8374900000001,396,041-0531,NOB HILL BODY SHOP                      ,38.83749,-104.77192,2023/05/04 00:00:00+00
-105.03464,39.6222900000001,397,005-1306,Bow Mart                                ,39.62229,-105.03464,2023/05/04 00:00:00+00
-104.74072,40.0832000000001,398,123-2385,KERR-MCGEE OIL & GAS - 36166449,40.0832,-104.74072,2023/05/04 00:00:00+00
-104.52984,40.29603,399,123-4853,NOBLE ENERGY INC. BATTERY #10024100,40.29603,-104.52984,2023/05/04 00:00:00+00
-107.73979,39.4330100000001,400,045-0942,CAERUS PICEANCE - G23W,39.43301,-107.73979,2023/05/04 00:00:00+00
-104.78462,40.31692,401,123-9121,KP KAUFFMAN Monfort 2-30,40.31692,-104.78462,2023/05/04 00:00:00+00
-104.86005,40.3997500000001,402,123-7996,NOBLE ENERGY - BATTERY #415736146,40.39975,-104.86005,2023/05/04 00:00:00+00
-104.62274,38.23495,403,101-0027,ST MARY CORWIN MEDICAL CENTER           ,38.23495,-104.62274,2023/05/04 00:00:00+00
-105.26513,38.43896,404,777-1825,TEZAK HEAVY EQUIP - CAT 3412 GENSET     ,38.43896,-105.26513,2023/05/04 00:00:00+00
-104.93301,39.8081300000001,405,001-1720,"OMEGA PRODUCTS INTERNATIONAL, INC.      ",39.80813,-104.93301,2023/05/04 00:00:00+00
-102.34556,40.59206,406,095-0123,SEABOARD FOODS LLC - HOLYOKE FEEDMILL,40.59206,-102.34556,2023/05/04 00:00:00+00
-102.4232,40.00118,407,125-2035,FOUNDATION ENERGY - HILLTOP 21-4,40.00118,-102.4232,2023/05/04 00:00:00+00
-107.79142,39.2510899999999,408,077-0615,LARAMIE ENERGY - PICEANCE 29-07 PAD,39.25109,-107.79142,2023/05/04 00:00:00+00
-107.92906,38.8911400000001,409,029-0039,CR BROWN TRANSPORT INC                  ,38.89114,-107.92906,2023/05/04 00:00:00+00
-104.9211,40.18427,410,123-6020,CRESTONE PEAK - GEIST 2-4-32 BATTERY,40.18427,-104.9211,2023/05/04 00:00:00+00
-104.3885,40.0976100000001,411,123-9A5B,HRM RESOURCES II - STATE 36-1,40.09761,-104.3885,2023/05/04 00:00:00+00
-104.71021,38.8394700000001,412,041-0205,LAYTON TRUCK EQUIPMENT CO               ,38.83947,-104.71021,2023/05/04 00:00:00+00
-105.08235,39.8414800000001,413,059-0535,TWIN STAR ENERGY #504,39.84148,-105.08235,2023/05/04 00:00:00+00
-102.08775,38.6589300000001,414,017-0214,"DCP MIDSTREAM, LP- GREAT SMOKEY         ",38.65893,-102.08775,2023/05/04 00:00:00+00
-102.29156,40.5852600000001,415,095-0122,SCHOLL OIL & TRANSPORTATION COMPANY     ,40.58526,-102.29156,2023/05/04 00:00:00+00
-107.96762,39.4944800000001,416,045-1292,WILLIAMS PRODUCTION PA 23-26-W,39.49448,-107.96762,2023/05/04 00:00:00+00
-108.39465,40.0017700000001,417,103-0467,CAERUS PICEANCE - YELLOW CREEK FEDERAL 4,40.00177,-108.39465,2023/05/04 00:00:00+00
-104.12038,40.50942,418,087-0102,HRM RESOURCES II - GIVAN 1,40.50942,-104.12038,2023/05/04 00:00:00+00
-105.05517,40.11409,419,123-5523,KERR-MCGEE OIL & GAS - 34003840,40.11409,-105.05517,2023/05/04 00:00:00+00
-105.98512,40.11251,420,049-0061,RANCH CREEK FOREST PRODUCTS - RANCH CREE,40.11251,-105.98512,2023/05/04 00:00:00+00
-104.77733,40.3622800000001,421,123-1774,NOBLE ENERGY INC. BATTERY #11341700,40.36228,-104.77733,2023/05/04 00:00:00+00
-104.77199,38.7826000000001,422,041-2011,KIEWIT - COLORADO SPRINGS ASPHALT PLANT ,38.7826,-104.77199,2023/05/04 00:00:00+00
-104.4857,40.5375900000001,423,123-9419,PDC - WILSON 24-30H,40.53759,-104.4857,2023/05/04 00:00:00+00
-104.78939,40.3168200000001,424,123-9841,K.P. KAUFFMAN - MONTFORT 1-29,40.31682,-104.78939,2023/05/04 00:00:00+00
-104.57545,38.20786,425,101-0003,PUBLIC SERVICE CO - COMANCHE PLT,38.20786,-104.57545,2023/05/04 00:00:00+00
-104.90369,40.48035,426,123-0569,MEMORY LANE ANTIQUES - MEMORY LANE ANTIQ,40.48035,-104.90369,2023/05/04 00:00:00+00
-106.18087,40.00898,427,777-3605,MTN PARK CONCRETE - SCREEN GENERATOR,40.00898,-106.18087,2023/05/04 00:00:00+00
-104.7726,40.2554999999999,428,123-2838,KERR-MCGEE OIL & GAS - 36149571,40.2555,-104.7726,2023/05/04 00:00:00+00
-104.7937,37.6535699999999,429,055-0009,TA OPERATING - BRUSH MINIT MART #648,37.65357,-104.7937,2023/05/04 00:00:00+00
-106.12207,37.6090600000001,430,105-0008,MATHIAS CONCRETE INC - NORTH FARM ROAD  ,37.60906,-106.12207,2023/05/04 00:00:00+00
-105.04406,40.40386,431,069-0423,Rum Ventures II-Tharp Cabinet       ,40.40386,-105.04406,2023/05/04 00:00:00+00
-104.54582,40.3058600000001,432,123-9685,NOBLE ENERGY - STOCKLEY T4N-R64W-S15 L01,40.30586,-104.54582,2023/05/04 00:00:00+00
-108.36904,39.37261,433,045-2422,LARAMIE ENERGY - HDU 7-23 PAD,39.37261,-108.36904,2023/05/04 00:00:00+00
-103.62505,40.25602,434,087-0066,JONES FAMILY FUNERAL - HEER MORTUARY,40.25602,-103.62505,2023/05/04 00:00:00+00
-104.90534,37.11467,435,071-0165,OGRIS OPERATING - GE 29-09-02,37.11467,-104.90534,2023/05/04 00:00:00+00
-104.80734,37.95643,436,101-0172,LOAF N JUG INC NO 24,37.95643,-104.80734,2023/05/04 00:00:00+00
-108.15881,39.46626,437,045-0358,CAERUS PICEANCE LLC - NOLTE METER     ,39.46626,-108.15881,2023/05/04 00:00:00+00
-108.44415,39.0400900000001,438,077-0568,VERIZON WIRELESS - MACK,39.04009,-108.44415,2023/05/04 00:00:00+00
-108.30743,40.9578000000001,439,081-0539,WEXPRO CO - HAL STEWART,40.9578,-108.30743,2023/05/04 00:00:00+00
-104.9303,40.28621,440,123-6985,PETROLEUM DEV CORP. - SHULTZ FARM 30-32,40.28621,-104.9303,2023/05/04 00:00:00+00
-104.61389,40.4155600000001,441,123-4945,Noble Tank Battery #11383700,40.41556,-104.61389,2023/05/04 00:00:00+00
-104.9201,40.41434,442,123-7094,KERR-MCGEE 35009448,40.41434,-104.9201,2023/05/04 00:00:00+00
-103.91389,40.8464700000001,443,123-9DC1,BNN WESTERN - REDTAIL POND H,40.84647,-103.91389,2023/05/04 00:00:00+00
-104.87181,39.6750000000001,444,005-1033,SILCO OIL CO,39.675,-104.87181,2023/05/04 00:00:00+00
-104.98577,40.01055,445,014-1330,CRESTONE PEAK - KATS 'B' UNIT #2,40.01055,-104.98577,2023/05/04 00:00:00+00
-105.00236,39.75262,446,031-2213,TRIANGLE AT UNION STATION-TRIANGLE BLDG,39.75262,-105.00236,2023/05/04 00:00:00+00
-104.72434,40.26072,447,123-A0E5,"PDC ENERGY, INC. - RIFLE FALLS 1 SEC HZ",40.26072,-104.72434,2023/05/04 00:00:00+00
-108.02022,39.5118,448,045-1062,WILLIAMS PRODUCTION RMT - PA 32-20-W,39.5118,-108.02022,2023/05/04 00:00:00+00
-105.08195,39.7181700000001,449,059-1293,"T & A CONOCO, LLC                       ",39.71817,-105.08195,2023/05/04 00:00:00+00
-107.77311,39.4773200000001,450,045-0552,ENCANA - P33,39.47732,-107.77311,2023/05/04 00:00:00+00
-107.85242,39.2876000000001,451,077-0481,OXY USA - MCDANIEL 11-11 PAD            ,39.2876,-107.85242,2023/05/04 00:00:00+00
-107.84716,39.28946,452,077-0544,LARAMIE ENERGY - MCDANIEL 11-10 PAD,39.28946,-107.84716,2023/05/04 00:00:00+00
-104.93621,37.1805200000001,453,777-4787,EVERGREEN NATURAL RESOURCES - PORTABLE E,37.18052,-104.93621,2023/05/04 00:00:00+00
-104.82628,40.36188,454,123-9879,"NOBLE ENERGY, INC. - BATTERY #415826453",40.36188,-104.82628,2023/05/04 00:00:00+00
-107.93709,37.08051,455,777-1544,WILLIAMS PRODUCTION AND EXPLORATION CO. ,37.08051,-107.93709,2023/05/04 00:00:00+00
-105.0608,40.0929600000001,456,013-1261,EXTRACTION O&G - BECKY 6-36,40.09296,-105.0608,2023/05/04 00:00:00+00
-104.7699,40.1997100000001,457,123-2324,KERR-MCGEE 60060/34002063,40.19971,-104.7699,2023/05/04 00:00:00+00
-104.76908,40.26318,458,123-3110,KERR-MCGEE 51009,40.26318,-104.76908,2023/05/04 00:00:00+00
-105.07695,40.6153100000001,459,069-0397,"ROCKY MOUNTAIN ADVENTURES, INC.",40.61531,-105.07695,2023/05/04 00:00:00+00
-104.97865,40.0499400000001,460,123-9422,KERR-MCGEE 36021748,40.04994,-104.97865,2023/05/04 00:00:00+00
-104.8369,40.24251,461,123-3126,KERR-MCGEE - 36150345,40.24251,-104.8369,2023/05/04 00:00:00+00
-105.09015,39.76822,462,059-0078,EXEMPLA LUTHERAN MEDICAL CENTER         ,39.76822,-105.09015,2023/05/04 00:00:00+00
-104.56415,39.85158,463,123-8637,HRM RESOURCES II - SEE 001-2161,39.85158,-104.56415,2023/05/04 00:00:00+00
-104.68203,37.18476,464,071-0835,EVERGREEN NATURAL RESOURCES - KEY LARGO,37.18476,-104.68203,2023/05/04 00:00:00+00
-107.47144,39.09024,465,051-0089,GUNNISON ENERGY-SPADAFORA 1190 #20-21 H1,39.09024,-107.47144,2023/05/04 00:00:00+00
-104.79977,40.41432,466,123-9F8C,EXTRACTION OIL & GAS - TRIPLE CREEK,40.41432,-104.79977,2023/05/04 00:00:00+00
-104.85449,39.5368100000001,467,005-1681,7-ELEVEN INC. - #34057,39.53681,-104.85449,2023/05/04 00:00:00+00
-105.0704,40.00377,468,013-1264,EXTRACTION O&G - ARAPAHOE 3-36,40.00377,-105.0704,2023/05/04 00:00:00+00
-105.02482,39.6250800000001,469,005-1614,DILLON COMPANIES - KING SOOPERS #109,39.62508,-105.02482,2023/05/04 00:00:00+00
-104.83386,40.1406100000001,470,123-9EF9,BURNCO COLORADO - LUPTON MEADOWS MINE,40.14061,-104.83386,2023/05/04 00:00:00+00
-105.26336,40.0236900000001,471,013-0541,CHAN FOREIGN CAR CO                     ,40.02369,-105.26336,2023/05/04 00:00:00+00
-104.83453,38.9001,472,041-0212,MICRO METALS                            ,38.9001,-104.83453,2023/05/04 00:00:00+00
-104.39172,40.3791300000001,473,123-7402,BONANZA CREEK- NORTH PLATTE 14-24,40.37913,-104.39172,2023/05/04 00:00:00+00
-104.68463,40.35829,474,123-9941,PDC ENERGY - GUARD RH FARMS T7N R6,40.35829,-104.68463,2023/05/04 00:00:00+00
-104.89143,40.2604700000001,475,123-A1CE,KERR-MCGEE OIL & GAS - SWARTZ 2-4HZ,40.26047,-104.89143,2023/05/04 00:00:00+00
-105.40199,39.75284,476,047-0009,JZ GAMING LLC DBA Z STOP,39.75284,-105.40199,2023/05/04 00:00:00+00
-108.73245,40.9331299999999,477,081-0398,WEXPRO - SUGARLOAF GOVERNMENT 14        ,40.93313,-108.73245,2023/05/04 00:00:00+00
-103.99258,40.8352200000001,478,123-9239,8 NORTH - PAWNEE 16-13H TANK BATTERY,40.83522,-103.99258,2023/05/04 00:00:00+00
-105.00422,40.0306800000001,479,123-9BCB,CRESTONE PEAK - LIQUIDS HANDLING HUB,40.03068,-105.00422,2023/05/04 00:00:00+00
-104.51052,40.41198,480,123-1743,Noble Tank Battery 11375400,40.41198,-104.51052,2023/05/04 00:00:00+00
-104.91112,37.0101900000001,481,071-0103,OGRIS OPERATING - HILL RANCH 3 C.S.,37.01019,-104.91112,2023/05/04 00:00:00+00
-104.39,40.4606000000001,482,123-7304,Noble Tank Battery #415674753,40.4606,-104.39,2023/05/04 00:00:00+00
-108.12413,39.7768000000001,483,103-0432,CAERUS PICEANCE - LIBERTY UNIT 396-24A,39.7768,-108.12413,2023/05/04 00:00:00+00
-105.03957,40.16588,484,123-9F11,JM SMUCKER - LONGMONT PLANT,40.16588,-105.03957,2023/05/04 00:00:00+00
-104.98426,39.7664200000001,485,031-2518,7-ELEVEN INC - 7-ELEVEN #39773,39.76642,-104.98426,2023/05/04 00:00:00+00
-107.8865,39.4797600000001,486,045-2287,TEP ROCKY MTN - QUARTER CIRCLE TANK FACI,39.47976,-107.8865,2023/05/04 00:00:00+00
-107.56638,37.2181900000001,487,067-1253,SIMCOE LLC - BAYFIELD CS,37.21819,-107.56638,2023/05/04 00:00:00+00
-103.35187,39.7635900000001,488,121-0302,FRITZLER - BEN #1,39.76359,-103.35187,2023/05/04 00:00:00+00
-104.96617,40.17275,489,123-2348,KERR-MCGEE 62191,40.17275,-104.96617,2023/05/04 00:00:00+00
-106.40405,40.5847299999999,490,057-0051,D90 ENERGY - BIGHORN 0780 S17 CTB FACILI,40.58473,-106.40405,2023/05/04 00:00:00+00
-104.55737,40.4500500000001,491,123-9260,NOBLE ENERGY - ROHR HANNAH T6N-R64W-S28,40.45005,-104.55737,2023/05/04 00:00:00+00
-105.0247,39.7606600000001,492,031-1371,HORAN & MCCONATY - FEDERAL CREMATORY,39.76066,-105.0247,2023/05/04 00:00:00+00
-105.07921,39.8132100000001,493,059-0469,GIGANTIC CLEANERS #21                   ,39.81321,-105.07921,2023/05/04 00:00:00+00
-104.20511,40.48058,494,123-0535,DCP OPERATING CO - JODY C.S.,40.48058,-104.20511,2023/05/04 00:00:00+00
-104.54818,40.42268,495,123-6223,PETROLEUM DEVELOPMENT- O'GRADY 2,40.42268,-104.54818,2023/05/04 00:00:00+00
-108.08213,39.4221100000001,496,045-1410,TEP ROCKY MTN - SG 23-23,39.42211,-108.08213,2023/05/04 00:00:00+00
-104.68106,40.40359,497,123-9BE8,FLEET COLLISION SERVICES - 2123 2ND AVE,40.40359,-104.68106,2023/05/04 00:00:00+00
-102.50169,40.37322,498,125-0054,J W OPERATING CO,40.37322,-102.50169,2023/05/04 00:00:00+00
-107.21864,39.40523,499,045-0199,ASPEN EARTHMOVING LLC                   ,39.40523,-107.21864,2023/05/04 00:00:00+00
-105.02773,40.0245300000001,500,123-0079,DENVER REGIONAL/FRONT RANGE LANDFILL    ,40.02453,-105.02773,2023/05/04 00:00:00+00
-105.00813,39.7145800000001,501,031-1837,"GENERAL IRON & STEEL, INC",39.71458,-105.00813,2023/05/04 00:00:00+00
-104.94691,40.1991200000001,502,123-3452,KERR-MCGEE - 36185459,40.19912,-104.94691,2023/05/04 00:00:00+00
-102.78877,38.6603499999999,503,017-0001,COLORADO INTERSTATE GAS- KIT CARSON C.S.,38.66035,-102.78877,2023/05/04 00:00:00+00
-104.99512,39.7567700000001,504,031-1674,COLORADO ROCKIES BASEBALL CLUB          ,39.75677,-104.99512,2023/05/04 00:00:00+00
-104.69171,40.42797,505,123-0268,GREELEY TRIBUNE - 501 8TH AVE,40.42797,-104.69171,2023/05/04 00:00:00+00
-105.26515,38.43894,506,043-0034,TEZAK HEAVY EQUIPMENT- T.H.E. AGGREGATE,38.43894,-105.26515,2023/05/04 00:00:00+00
-104.60258,39.7435700000001,507,005-1054,BRADLEY PETROLEUM INC NO 467,39.74357,-104.60258,2023/05/04 00:00:00+00
-104.75688,40.45377,508,123-5304,"SRC ENERGY, INC. - FEIT T6N-R66W-S26 L01",40.45377,-104.75688,2023/05/04 00:00:00+00
-104.71311,39.6519400000001,509,005-1291,WASTE MANAGEMENT - DENVER ARAPAHOE DISPO,39.65194,-104.71311,2023/05/04 00:00:00+00
-104.74827,40.2365700000001,510,123-2059,KERR-MCGEE OIL & GAS - 34003604,40.23657,-104.74827,2023/05/04 00:00:00+00
-105.98996,38.5360400000001,511,015-0051,"RIVERSIDE CREMATORY, LLC                ",38.53604,-105.98996,2023/05/04 00:00:00+00
-104.51516,40.5062000000001,512,123-6609,Noble Tank Battery #11718300,40.5062,-104.51516,2023/05/04 00:00:00+00
-104.75629,40.4952600000001,513,123-9D3E,"PDC - HARVESTERS RESOURCES 15R-323, 403",40.49526,-104.75629,2023/05/04 00:00:00+00
-106.39788,40.6278,514,057-0041,D90 ENERGY - GRIZZLY 3-32H,40.6278,-106.39788,2023/05/04 00:00:00+00
-104.91632,37.1115700000001,515,777-4111,TIMBER CREEK - PORT WELLHEAD ENG 510,37.11157,-104.91632,2023/05/04 00:00:00+00
-104.26655,40.4234500000001,516,123-9E8A,BONANZA CREEK - STATE ANTELOPE T-1 PAD,40.42345,-104.26655,2023/05/04 00:00:00+00
-108.04214,39.4678800000001,517,045-1185,TEP ROCKY MTN - PA 22-6,39.46788,-108.04214,2023/05/04 00:00:00+00
-106.85838,40.49777,518,107-0093,OLDCASTLE SW GROUP - 1771 SHIELDS DR,40.49777,-106.85838,2023/05/04 00:00:00+00
-104.89296,39.59759,519,005-1673,AT&T SRVCS- GREENWOOD PLAZA RD COM TOWER,39.59759,-104.89296,2023/05/04 00:00:00+00
-104.67975,40.3482,520,123-2947,NOBLE ENERGY - KNAUB STROHAUER,40.3482,-104.67975,2023/05/04 00:00:00+00
-104.74156,40.1555500000001,521,123-5074,KERR-MCGEE 62575,40.15555,-104.74156,2023/05/04 00:00:00+00
-107.755,39.48447,522,045-1612,CAERUS PICEANCE - H34NW,39.48447,-107.755,2023/05/04 00:00:00+00
-108.49973,39.0735200000001,523,077-0574,VERIZON WIRELESS - NOVA,39.07352,-108.49973,2023/05/04 00:00:00+00
-104.79511,38.83884,524,041-0015,OLYMPIC TRAINING CENTER                 ,38.83884,-104.79511,2023/05/04 00:00:00+00
-105.10917,39.77853,525,059-0746,SUNCOR - 2706243                        ,39.77853,-105.10917,2023/05/04 00:00:00+00
-107.21865,39.4000500000001,526,045-0138,JB&M LLC - CARBONDALE CAR CARE,39.40005,-107.21865,2023/05/04 00:00:00+00
-105.18484,40.78839,527,777-1521,PETE LIEN - PORTABLE SCREEN,40.78839,-105.18484,2023/05/04 00:00:00+00
-108.19608,40.11838,528,103-0234,ENCANA - ANT HILL #29-11,40.11838,-108.19608,2023/05/04 00:00:00+00
-104.60337,40.1740400000001,529,123-8590,KERR-MCGEE OIL & GAS - BATTERY #11605100,40.17404,-104.60337,2023/05/04 00:00:00+00
-106.92524,38.54421,530,051-0043,PARISH OIL CO INC - 201 E TOMICHI,38.54421,-106.92524,2023/05/04 00:00:00+00
-104.88578,37.003,531,777-3742,TIMBER CREEK - HR 16-01 - PORTABLE ENGIN,37.003,-104.88578,2023/05/04 00:00:00+00
-104.79669,40.46693,532,123-9F7E,PDC ENERGY - HOOD 20 SEC,40.46693,-104.79669,2023/05/04 00:00:00+00
-104.5057,40.4353,533,123-9BD5,NOBLE ENERGY - LUCCI ST T5N-R64W-S1 L01,40.4353,-104.5057,2023/05/04 00:00:00+00
-104.88138,40.29477,534,123-6304,K. P. KAUFFMAN - MCCARTY #1,40.29477,-104.88138,2023/05/04 00:00:00+00
-105.04864,39.86143,535,001-2022,CITY OF WESTMINSTER - PUBLIC SAFETY BLDG,39.86143,-105.04864,2023/05/04 00:00:00+00
-103.13281,38.3940200000001,536,061-0014,KIOWA CNTY BLACKBURN SOUTH PIT          ,38.39402,-103.13281,2023/05/04 00:00:00+00
-104.88454,37.11105,537,071-0159,OGRIS OPERATING - AC 04-04,37.11105,-104.88454,2023/05/04 00:00:00+00
-104.70025,39.66084,538,777-4556,ASPHALT SPECIAL - PORT CRUSH-SCR CR-48,39.66084,-104.70025,2023/05/04 00:00:00+00
-104.95879,39.85643,539,001-0990,CF ALTITUDE -ALTA CONVENIENCE #6105,39.85643,-104.95879,2023/05/04 00:00:00+00
-107.77416,39.47895,540,045-0669,CAERUS PICEANCE - P33NWB PRODUCTION PAD,39.47895,-107.77416,2023/05/04 00:00:00+00
-104.63267,40.52477,541,123-4501,PETROLEUM DEV Booth 24-35,40.52477,-104.63267,2023/05/04 00:00:00+00
-104.90633,37.16135,542,071-0292,OGRIS OPERATING - GE 20-07,37.16135,-104.90633,2023/05/04 00:00:00+00
-104.58749,40.3532500000001,543,123-9012,DCP OPERATING CO - O'CONNOR GAS PLANT,40.35325,-104.58749,2023/05/04 00:00:00+00
-104.87023,40.3467300000001,544,123-3601,KERR-MCGEE OIL & GAS - BATTERY #10861200,40.34673,-104.87023,2023/05/04 00:00:00+00
-104.86727,40.21626,545,123-4075,KERR-MCGEE - 65506,40.21626,-104.86727,2023/05/04 00:00:00+00
-104.99177,40.11136,546,123-4359,ENCANA - MILLER 22-27 DUP SEE 123.1366  ,40.11136,-104.99177,2023/05/04 00:00:00+00
-104.41568,40.2316200000001,547,123-A0D6,KERR-MCGEE GATHERING - TRITON COMP STATI,40.23162,-104.41568,2023/05/04 00:00:00+00
-104.49188,40.3467900000001,548,123-4219,PDC ENERGY - MCDERMED 1-1,40.34679,-104.49188,2023/05/04 00:00:00+00
-104.70629,39.88522,549,031-1973,CITY & COUNTY OF DENVER - KALLSEN,39.88522,-104.70629,2023/05/04 00:00:00+00
-104.7615,39.4937,550,035-0703,"7-ELEVEN, INC. - #34159",39.4937,-104.7615,2023/05/04 00:00:00+00
-104.97182,37.13844,551,071-0500,"XTO ENERGY, INC. - NE 26-12             ",37.13844,-104.97182,2023/05/04 00:00:00+00
-104.77091,39.61831,552,005-1301,CIRCLE K STORES - CORNER STORE #1166,39.61831,-104.77091,2023/05/04 00:00:00+00
-104.85371,40.1416000000001,553,123-2001,KERR-MCGEE - 34003810,40.1416,-104.85371,2023/05/04 00:00:00+00
-104.50957,40.37203,554,123-8666,Noble Tank Battery #415734344,40.37203,-104.50957,2023/05/04 00:00:00+00
-104.55114,40.12771,555,123-1711,Noble Tank Battery #11618500,40.12771,-104.55114,2023/05/04 00:00:00+00
-104.51167,37.1701600000001,556,071-0028,PESTER MARKETING -ALTA CONVENIENCE #6255,37.17016,-104.51167,2023/05/04 00:00:00+00
-104.87758,40.42179,557,123-3308,KERR-MCGEE - 28008,40.42179,-104.87758,2023/05/04 00:00:00+00
-104.31993,39.7670100000001,558,001-1555,AMERICAN PRIDE COOP                     ,39.76701,-104.31993,2023/05/04 00:00:00+00
-104.84668,38.8478000000001,559,041-2155,FAMILY PET CREMATORY - 1721 W UINTAH,38.8478,-104.84668,2023/05/04 00:00:00+00
-108.96284,39.4917600000001,560,045-2412,FOUNDATION ENERGY MGMT - GOVERNMENT #1,39.49176,-108.96284,2023/05/04 00:00:00+00
-104.98541,40.7729100000001,561,069-0287,GLACIER ROCK CO. - GLACIER ROCK PIT,40.77291,-104.98541,2023/05/04 00:00:00+00
-104.68396,40.23033,562,123-4714,KERR-MCGEE 62552,40.23033,-104.68396,2023/05/04 00:00:00+00
-104.83305,40.4667700000001,563,123-9ED6,PDC ENERGY - BURR FD PAD,40.46677,-104.83305,2023/05/04 00:00:00+00
-108.00622,38.73987,564,777-0990,DELTA COUNTY                            ,38.73987,-108.00622,2023/05/04 00:00:00+00
-108.19563,39.8989200000001,565,103-0128,WEST TEXAS - PICEANCE CREEK GP,39.89892,-108.19563,2023/05/04 00:00:00+00
-105.06527,40.5963100000001,566,069-0209,LARIMER CNTY FLEET MGMT,40.59631,-105.06527,2023/05/04 00:00:00+00
-104.47847,40.22346,567,123-7271,"PDC - Guttersen 24, 33, 34, 43, 44-18...",40.22346,-104.47847,2023/05/04 00:00:00+00
-104.06699,40.60328,568,123-9BC9,RED HAWK PETROLEUM - BUCHNER 2-2H,40.60328,-104.06699,2023/05/04 00:00:00+00
-104.3032,39.8784800000001,569,001-1436,HRM RESOURCES II - KALLSEN 15-01,39.87848,-104.3032,2023/05/04 00:00:00+00
-106.1809,40.00895,570,777-2697,MOUNTAIN PARK CONCRETE INC              ,40.00895,-106.1809,2023/05/04 00:00:00+00
-105.01741,40.2911900000001,571,123-9C7F,EXTRACTION O&G - HORNUNG BATTERY,40.29119,-105.01741,2023/05/04 00:00:00+00
-104.73468,40.343,572,123-4323,K.P. KAUFFMAN CO - LOEFFLER #2-24,40.343,-104.73468,2023/05/04 00:00:00+00
-102.1274,40.8962000000001,573,115-0026,ROCKIES EXPRESS PIPELINE - JULESBURG CS,40.8962,-102.1274,2023/05/04 00:00:00+00
-104.56501,40.2524400000001,574,123-9373,Noble Tank Battery #415812780,40.25244,-104.56501,2023/05/04 00:00:00+00
-108.12441,39.4904700000001,575,045-0229,BARGATH LLC - STARKEY GULCH CS          ,39.49047,-108.12441,2023/05/04 00:00:00+00
-104.54868,40.51294,576,123-5889,"PDC ENERGY - LAWLEY 33, 43-4; 44-4D",40.51294,-104.54868,2023/05/04 00:00:00+00
-104.90145,37.1631800000001,577,071-0119,OGRIS OPERATING - GOLDEN EAGLE 7 C.S.,37.16318,-104.90145,2023/05/04 00:00:00+00
-104.80613,40.2141700000001,578,123-6814,KERR-MCGEE 62057,40.21417,-104.80613,2023/05/04 00:00:00+00
-106.23335,40.7801300000001,579,057-0061,KP KAUFFMAN - PIERRE B PRODUCTION BATTER,40.78013,-106.23335,2023/05/04 00:00:00+00
-108.56331,39.07822,580,077-0249,MARTIN MORTUARY                         ,39.07822,-108.56331,2023/05/04 00:00:00+00
-104.63101,40.13787,581,123-8253,KERR-MCGEE 16017,40.13787,-104.63101,2023/05/04 00:00:00+00
-104.50637,40.5047299999999,582,123-5872,"PDC - Cecil 11, 21-12",40.50473,-104.50637,2023/05/04 00:00:00+00
-107.60765,39.5310800000001,583,045-2355,TEP ROCKY MOUNTAIN - MCLIN B PAD,39.53108,-107.60765,2023/05/04 00:00:00+00
-109.0238,39.3302200000001,584,077-0125,UGC MIDSTREAM- PREMIER BAR X C.S.,39.33022,-109.0238,2023/05/04 00:00:00+00
-104.54619,40.2649200000001,585,123-8944,Noble Tank Battery #415803197,40.26492,-104.54619,2023/05/04 00:00:00+00
-105.05131,40.5384100000001,586,069-0265,MINI MART - LOAF N JUG 819,40.53841,-105.05131,2023/05/04 00:00:00+00
-105.51229,39.74276,587,019-0014,SALO INC,39.74276,-105.51229,2023/05/04 00:00:00+00
-104.60657,40.4312600000001,588,123-1666,"PDC BJB 1, 2, 3, 4, 5, 6I",40.43126,-104.60657,2023/05/04 00:00:00+00
-104.99179,40.12949,589,123-6277,CRESTONE PEAK - JILLSON 1-22,40.12949,-104.99179,2023/05/04 00:00:00+00
-104.7814,40.2319,590,123-8430,KERR-MCGEE OIL & GAS -BATTERY #415770186,40.2319,-104.7814,2023/05/04 00:00:00+00
-104.78424,40.6571400000001,591,123-A152,PDC ENERGY - REEMAN DE PAD,40.65714,-104.78424,2023/05/04 00:00:00+00
-103.87408,40.6846100000001,592,123-0468,NOBLE ENERGY - LILLI GAS PROC. PLANT,40.68461,-103.87408,2023/05/04 00:00:00+00
-104.55885,40.2396299999999,593,123-3405,Noble Tank Battery #415861042,40.23963,-104.55885,2023/05/04 00:00:00+00
-105.00233,40.39403,594,777-2295,"WARD CONSTRUCTION, LLC                  ",40.39403,-105.00233,2023/05/04 00:00:00+00
-107.89788,37.1357,595,777-1350,WILLIAMS PROD & EXPLORATION CO          ,37.1357,-107.89788,2023/05/04 00:00:00+00
-108.07281,38.7398000000001,596,029-0097,VERIZON WIRELESS - DT DELTA,38.7398,-108.07281,2023/05/04 00:00:00+00
-105.05321,40.03599,597,123-8893,FEATHER PETROLEUM - STOP 'N SAVE #24,40.03599,-105.05321,2023/05/04 00:00:00+00
-106.44193,40.5713200000001,598,057-0037,D90 ENERGY - COALMONT 3-13H,40.57132,-106.44193,2023/05/04 00:00:00+00
-104.88556,39.8666400000001,599,001-1735,"AIRGAS INTERMOUNTAIN, INC               ",39.86664,-104.88556,2023/05/04 00:00:00+00
-104.15975,40.1914900000001,600,123-1319,"LEVEL 3 COMMUNICATIONS, LLC - WELD CO   ",40.19149,-104.15975,2023/05/04 00:00:00+00
-104.45577,40.4103200000001,601,123-1591,"PETROLEUM DEV State 5519 8-34, 8-43",40.41032,-104.45577,2023/05/04 00:00:00+00
-104.76017,40.0891700000001,602,123-3812,CRESTONE PEAK - SEYMOUR #34-34,40.08917,-104.76017,2023/05/04 00:00:00+00
-105.04766,40.6524000000001,603,069-0175,PROSPECT ENERGY - KWB                   ,40.6524,-105.04766,2023/05/04 00:00:00+00
-104.99733,39.9155500000001,604,001-1375,CIRCLE K STORE # 2709839                ,39.91555,-104.99733,2023/05/04 00:00:00+00
-104.67738,40.3121200000001,605,123-8081,PDC - QUANTUM BRUNTZ 13-16,40.31212,-104.67738,2023/05/04 00:00:00+00
-104.1097,40.5960400000001,606,123-9A32,VERDAD RESOURCES - PERGAMOS 8-41-7-60,40.59604,-104.1097,2023/05/04 00:00:00+00
-103.5377,39.3502599999999,607,073-0156,NIGHTHAWK PROD - MONARCH 10-15 TANK BATT,39.35026,-103.5377,2023/05/04 00:00:00+00
-105.02071,39.6105500000001,608,005-1751,LITTLETON GS PROP - LITTLETON CONOCO,39.61055,-105.02071,2023/05/04 00:00:00+00
-102.38018,38.7958600000001,609,017-0310,P.O.&G. OPERATING - HOFFMAN 7 32 HP NG E,38.79586,-102.38018,2023/05/04 00:00:00+00
-104.9995,39.61339,610,005-1752,YP & PP INC - HORIZON FOOD & GAS,39.61339,-104.9995,2023/05/04 00:00:00+00
-104.94108,39.7288,611,031-1133,"A-B PETROLEUM, INC. #35                 ",39.7288,-104.94108,2023/05/04 00:00:00+00
-104.75639,38.89055,612,041-0332,SUNCOR - 2706234                        ,38.89055,-104.75639,2023/05/04 00:00:00+00
-102.61955,38.1160100000001,613,099-0011,SOUTHEASTERN COLORADO COOP              ,38.11601,-102.61955,2023/05/04 00:00:00+00
-104.80485,40.1000400000001,614,123-9F20,KERR MCGEE OIL&GAS - 36852120,40.10004,-104.80485,2023/05/04 00:00:00+00
-104.94729,37.20125,615,777-4785,EVERGREEN NATURAL RESOURCES - PORTABLE E,37.20125,-104.94729,2023/05/04 00:00:00+00
-104.7062,40.8192000000001,616,123-0480,WELD COUNTY PUBLIC WORKS (MINING DIV)   ,40.8192,-104.7062,2023/05/04 00:00:00+00
-108.94117,39.7984499999999,617,103-0416,RIO BLANCO CNTY RD& BRIDGE- TEXAS CREEK ,39.79845,-108.94117,2023/05/04 00:00:00+00
-104.71253,40.2705300000001,618,123-3333,NOBLE ENERGY - MASSEY SIAMA RURAL,40.27053,-104.71253,2023/05/04 00:00:00+00
-104.55835,40.2236500000001,619,123-8179,NOBLE ENERGY - BATTERY # 415739597,40.22365,-104.55835,2023/05/04 00:00:00+00
-104.63745,40.3324300000001,620,123-4868,NOBLE ENERGY INC. BATTERY #10654600,40.33243,-104.63745,2023/05/04 00:00:00+00
-104.7066,40.53561,621,123-8470,BAYSWATER E&P - GUSTAFSON BATT  ,40.53561,-104.7066,2023/05/04 00:00:00+00
-104.94137,37.15098,622,071-0490,OGRIS OPERATING - AC 14-16V,37.15098,-104.94137,2023/05/04 00:00:00+00
-104.80189,40.01192,623,123-9F43,PDC ENERGY - DITTMER KE PAD,40.01192,-104.80189,2023/05/04 00:00:00+00
-107.49938,40.4865300000001,624,081-0103,CUSTOM ENERGY CONST. - BUCK PEAK PLANT,40.48653,-107.49938,2023/05/04 00:00:00+00
-105.2143,40.0631300000001,625,013-0113,COVIDIEN LP,40.06313,-105.2143,2023/05/04 00:00:00+00
-106.18954,37.04902,626,021-0039,ROBINS CONSTRUCTION - ROBINS PIT NO. 1,37.04902,-106.18954,2023/05/04 00:00:00+00
-104.03569,40.6269100000001,627,123-9ACF,VERDAD RESOURCES LLC -  HEMBERGER...,40.62691,-104.03569,2023/05/04 00:00:00+00
-104.8921,39.7404000000001,628,031-1464,TAKNH LLC DBA EAST COLFAX SINCLAIR      ,39.7404,-104.8921,2023/05/04 00:00:00+00
-104.24024,40.8629600000001,629,123-8842,EXTRACTION O&G - MARICK 1061-6-41 JS,40.86296,-104.24024,2023/05/04 00:00:00+00
-104.99829,39.7261,630,031-1418,AB PETROLEUM INC NO 22                  ,39.7261,-104.99829,2023/05/04 00:00:00+00
-104.91149,39.87318,631,001-1221,SO ADAMS CNTY WATER & SANITATION DISTRCT,39.87318,-104.91149,2023/05/04 00:00:00+00
-104.65765,37.2540900000001,632,071-0077,EVERGREEN NATURAL RESOURCES - TAMBURELLI,37.25409,-104.65765,2023/05/04 00:00:00+00
-104.6119,38.27313,633,101-0182,CF ALTITUDE - ALTA CONVIENCE 3103,38.27313,-104.6119,2023/05/04 00:00:00+00
-104.31822,40.38035,634,123-9E19,HIGHPOINT - ANSCHUTZ STATE 5-62-22_23 SW,40.38035,-104.31822,2023/05/04 00:00:00+00
-104.92884,39.83255,635,001-1532,"ALLIED WASTE TRANSPORTATION, INC",39.83255,-104.92884,2023/05/04 00:00:00+00
-104.93824,40.1921600000001,636,123-3372,KERR-MCGEE 74113,40.19216,-104.93824,2023/05/04 00:00:00+00
-104.63959,40.40063,637,123-9C18,EXTRACTION O&G - ROTH 14-5,40.40063,-104.63959,2023/05/04 00:00:00+00
-108.76132,40.9366699999999,638,081-0542,WEXPRO CO - SUGARLOAF GO,40.93667,-108.76132,2023/05/04 00:00:00+00
-104.77203,39.6524900000001,639,005-1336,CST METRO LLC DBA CORNER STORE #4052,39.65249,-104.77203,2023/05/04 00:00:00+00
-104.7136,40.4791000000001,640,123-8506,Noble Tank Battery #415771409,40.4791,-104.7136,2023/05/04 00:00:00+00
-104.62551,38.21838,641,101-0152,CF ALTITUDE -ALTA CONVENIENCE #6135,38.21838,-104.62551,2023/05/04 00:00:00+00
-104.38011,40.49762,642,123-9437,Noble Tank Battery #415810769,40.49762,-104.38011,2023/05/04 00:00:00+00
-105.95737,39.5200600000001,643,777-4357,WM D SCEPANIAK - PORTABLE CRUSHER,39.52006,-105.95737,2023/05/04 00:00:00+00
-108.15949,39.6718900000001,644,045-1721,CAERUS PICEANCE - L27 496 WELL PAD,39.67189,-108.15949,2023/05/04 00:00:00+00
-105.22978,38.4443300000001,645,043-0070,CF ALTITUDE -ALTA CONVENIENCE #6122,38.44433,-105.22978,2023/05/04 00:00:00+00
-104.72967,40.34299,646,123-8676,SEE 123-8525 NOBLE ENERGY BATT# 11323400,40.34299,-104.72967,2023/05/04 00:00:00+00
-104.84823,39.3764199999999,647,035-0728,VERIZON WIRELESS - DT CASTLE ROCK,39.37642,-104.84823,2023/05/04 00:00:00+00
-104.61311,38.1657500000001,648,101-1200,OMAHA TRACK - 3201 LIME ROAD,38.16575,-104.61311,2023/05/04 00:00:00+00
-108.15173,39.47865,649,045-1841,CAERUS PICEANCE LLC - STARKEY 7,39.47865,-108.15173,2023/05/04 00:00:00+00
-105.09937,39.91164,650,014-0788,BALL AEROSPACE & TECHNOLOGIES CORP      ,39.91164,-105.09937,2023/05/04 00:00:00+00
-104.90342,36.99832,651,777-3935,TIMBER CREEK- PORTABLE WELLHEAD ENGINE,36.99832,-104.90342,2023/05/04 00:00:00+00
-105.22212,40.01687,652,013-1469,D&K PRINTING - 5637 ARAPAHOE,40.01687,-105.22212,2023/05/04 00:00:00+00
-104.94953,37.1339600000001,653,777-4016,"TIMBER CREEK - PORTABLE ENGINE, TIMBER C",37.13396,-104.94953,2023/05/04 00:00:00+00
-104.21762,40.9603500000001,654,123-9267,EXTRACTION O&G - LOYD PC GD 33-13 PAD,40.96035,-104.21762,2023/05/04 00:00:00+00
-104.86738,40.3942800000001,655,123-4749,PATINA GOLDBERG N 14-13 DUP SEE 123.4385,40.39428,-104.86738,2023/05/04 00:00:00+00
-104.6658,40.2428500000001,656,123-5414,KERR-MCGEE 61385,40.24285,-104.6658,2023/05/04 00:00:00+00
-104.89408,37.1343600000001,657,071-0335,TIMBER CREEK - 3-0005796,37.13436,-104.89408,2023/05/04 00:00:00+00
-104.25431,40.40918,658,123-9C89,BONANZA CREEK - PRONGHORN 24-7 BOOSTER,40.40918,-104.25431,2023/05/04 00:00:00+00
-104.72372,40.3227800000001,659,123-4139,"NOBLE ENERGY, INC. - 415860883",40.32278,-104.72372,2023/05/04 00:00:00+00
-104.72282,39.9302500000001,660,001-2192,EXTRACTION O&G - ALMA 1S-66-2524,39.93025,-104.72282,2023/05/04 00:00:00+00
-104.78914,40.2148500000001,661,123-2291,KERR-MCGEE - X11633 34002776 SARCHET4-21,40.21485,-104.78914,2023/05/04 00:00:00+00
-104.529,40.5368000000001,662,123-99AE,NOBLE ENERGY - DYER USX T7N-R64W-S34 L01,40.5368,-104.529,2023/05/04 00:00:00+00
-104.85382,40.25424,663,123-2051,KERR-MCGEE 72122 - SCOTTDALE RANCHES...,40.25424,-104.85382,2023/05/04 00:00:00+00
-103.70834,39.8003199999999,664,777-2178,SIMON CONTRACTORS                       ,39.80032,-103.70834,2023/05/04 00:00:00+00
-104.55316,40.4910000000001,665,123-1569,"PETROLEUM DEV State 81 41-16, State 16-C",40.491,-104.55316,2023/05/04 00:00:00+00
-105.0337,40.35852,666,069-0425,MAGPIE OPERATING INC. - BUNKER 3/3A/4A,40.35852,-105.0337,2023/05/04 00:00:00+00
-104.84525,37.03803,667,071-0480,TIMBER CREEK - XTO 409,37.03803,-104.84525,2023/05/04 00:00:00+00
-104.97162,39.6524300000001,668,005-1661,CHERRY HILLS SURGERY CENTER,39.65243,-104.97162,2023/05/04 00:00:00+00
-104.67214,40.21696,669,123-A1B4,KERR-MCGEE - MOSER FED 3-21HZ,40.21696,-104.67214,2023/05/04 00:00:00+00
-108.44523,39.06699,670,077-0577,OLDCASTLE SW GROUP - OTTER CREEK PIT,39.06699,-108.44523,2023/05/04 00:00:00+00
-104.99889,39.7472999999999,671,031-2296,HART 1401 LAWRENCE - 1401 LAWRENCE ST,39.7473,-104.99889,2023/05/04 00:00:00+00
-108.17874,39.47056,672,045-2411,CAERUS PICEANCE - MESA P2-797 PAD,39.47056,-108.17874,2023/05/04 00:00:00+00
-105.05213,39.69694,673,031-1243,LUPE'S AUTO BODY                        ,39.69694,-105.05213,2023/05/04 00:00:00+00
-104.75616,38.89583,674,041-1582,WON IL KIM - MONTBELLO CLEANERS,38.89583,-104.75616,2023/05/04 00:00:00+00
-104.78491,40.29513,675,123-2764,Noble Tank Battery #11337900,40.29513,-104.78491,2023/05/04 00:00:00+00
-104.62871,38.9392800000001,676,041-2037,FALCON COLLISION CENTER                 ,38.93928,-104.62871,2023/05/04 00:00:00+00
-104.92264,39.5671700000001,677,005-1034,DILLON COS - KING SOOPERS FUEL FAC #063,39.56717,-104.92264,2023/05/04 00:00:00+00
-104.49129,40.42405,678,123-3534,Noble Tank Battery #91343400,40.42405,-104.49129,2023/05/04 00:00:00+00
-108.12102,39.5325599999999,679,045-1847,CAERUS PICEANCE LLC - UNOCAL 2,39.53256,-108.12102,2023/05/04 00:00:00+00
-104.92193,39.8126300000001,680,001-0721,CST METRO LLC DBA CORNER STORE #669,39.81263,-104.92193,2023/05/04 00:00:00+00
-104.67514,38.8739600000001,681,041-0888,SMYRNA READY MIX - CAPITAL MIX PLANT,38.87396,-104.67514,2023/05/04 00:00:00+00
-104.5456,40.3953000000001,682,123-3479,Noble Tank Battery #11357200,40.3953,-104.5456,2023/05/04 00:00:00+00
-104.79995,40.37501,683,123-3620,NOBLE ENERGY INC. BATTERY #10825800,40.37501,-104.79995,2023/05/04 00:00:00+00
-104.49788,40.5150600000001,684,123-99FC,Noble Tank Battery #415830811,40.51506,-104.49788,2023/05/04 00:00:00+00
-104.79743,39.7757700000001,685,031-2156,RAYMOND JAMES & ASSOCIATES - PROJECT HAL,39.77577,-104.79743,2023/05/04 00:00:00+00
-103.87995,40.7601900000001,686,123-9A35,NOBLE ENERGY - TIMBRO FEDERAL LD08-62HN,40.76019,-103.87995,2023/05/04 00:00:00+00
-104.97084,39.77871,687,031-1948,CITY AND COUNTY OF DENVER - COLISEUM,39.77871,-104.97084,2023/05/04 00:00:00+00
-105.061,40.5172999999999,688,031-2100,BLUE CHIP OIL - REG 7 REPORTING ONLY,40.5173,-105.061,2023/05/04 00:00:00+00
-104.5461,40.48616,689,123-1537,"PDC - State 81 43, 44-16",40.48616,-104.5461,2023/05/04 00:00:00+00
-104.93761,40.37772,690,123-5221,KERR-MCGEE OIL & GAS - 36148779,40.37772,-104.93761,2023/05/04 00:00:00+00
-104.71706,38.6705499999999,691,041-2050,PAVESTONE COMPANY                       ,38.67055,-104.71706,2023/05/04 00:00:00+00
-104.853,37.23837,692,071-0819,EVERGREEN NATURAL RESOURCES - NASH 34-23,37.23837,-104.853,2023/05/04 00:00:00+00
-102.18737,38.0483700000001,693,777-2484,KIRKLAND CONSTRUCTION LLLP              ,38.04837,-102.18737,2023/05/04 00:00:00+00
-104.78359,40.1190599999999,694,123-2253,KERR-MCGEE OIL & GAS - 36170112,40.11906,-104.78359,2023/05/04 00:00:00+00
-108.07648,38.5333600000001,695,085-0094,TRANSCOLORADO GAS - OLATHE C.S.         ,38.53336,-108.07648,2023/05/04 00:00:00+00
-104.85443,40.2649700000001,696,123-2047,KERR-MCGEE - 34001942 SHARKEY,40.26497,-104.85443,2023/05/04 00:00:00+00
-104.79619,39.7642300000001,697,001-2242,CONAGRA FOODS PACKAGED FOODS - AURORA,39.76423,-104.79619,2023/05/04 00:00:00+00
-105.09305,40.37816,698,069-0258,R&S FOOD & GAS (WAS SCHRADER OIL CO.)   ,40.37816,-105.09305,2023/05/04 00:00:00+00
-104.54398,40.2909100000001,699,123-9686,Noble Tank Battery #415819911,40.29091,-104.54398,2023/05/04 00:00:00+00
-105.05818,40.56694,700,069-0262,HOSPITAL TEXACO,40.56694,-105.05818,2023/05/04 00:00:00+00
-105.22396,40.0362000000001,701,013-0351,AGC BIOLOGICS INC - AGC BIOLOGICS,40.0362,-105.22396,2023/05/04 00:00:00+00
-104.65646,40.25973,702,123-4871,NOBLE ENERGY INC. BATTERY #11385400,40.25973,-104.65646,2023/05/04 00:00:00+00
-104.72332,38.7807200000001,703,041-2177,KUM & GO - KUM & GO #661,38.78072,-104.72332,2023/05/04 00:00:00+00
-104.98961,39.5695100000001,704,005-1311,CALIBER COLLISION - LITTLETON - #0844,39.56951,-104.98961,2023/05/04 00:00:00+00
-104.16294,40.9513800000001,705,123-9192,EXTRACTION O&G - HEATH PC GK02-07,40.95138,-104.16294,2023/05/04 00:00:00+00
-104.87241,39.10184,706,041-2088,VERIZON WIRELESS - MONUMENT,39.10184,-104.87241,2023/05/04 00:00:00+00
-104.84548,38.74475,707,041-0783,CHEYENNE MOUNTAIN AIR FORCE STATION     ,38.74475,-104.84548,2023/05/04 00:00:00+00
-104.84939,40.0768300000001,708,123-A010,KERR MCGEE O&G ONSHORE - 36915967,40.07683,-104.84939,2023/05/04 00:00:00+00
-104.9485,37.1450600000001,709,071-0494,TIMBER CREEK - XTO 170 & XTO 177,37.14506,-104.9485,2023/05/04 00:00:00+00
-102.09848,38.85722,710,017-0238,CITATION OIL & GAS CORP                 ,38.85722,-102.09848,2023/05/04 00:00:00+00
-104.77897,39.86912,711,001-0708,US EXPLORATION BOX ELDER 2 31-21        ,39.86912,-104.77897,2023/05/04 00:00:00+00
-107.89583,39.4875800000001,712,045-2082,TEP ROCKY MTN - RMV 77-33,39.48758,-107.89583,2023/05/04 00:00:00+00
-105.1314,40.15398,713,013-0586,CIRCLE K STORES - CORNER STORE #1147,40.15398,-105.1314,2023/05/04 00:00:00+00
-104.75039,40.1624,714,123-4187,CRESTONE PEAK - IONE 3 TANK BATTERY,40.1624,-104.75039,2023/05/04 00:00:00+00
-104.89066,40.3459900000001,715,123-1889,KERR-MCGEE - 36146449,40.34599,-104.89066,2023/05/04 00:00:00+00
-104.87919,40.28887,716,123-3478,PDC ENERGY - GOLLNER T4N-R67W-S27 L01,40.28887,-104.87919,2023/05/04 00:00:00+00
-104.83444,40.04767,717,123-1979,KERR-MCGEE - X12052 34002725 KIEFFER POO,40.04767,-104.83444,2023/05/04 00:00:00+00
-107.38236,40.9828300000001,718,081-0318,J & D SAND AND GRAVEL - SHEEHAN PIT,40.98283,-107.38236,2023/05/04 00:00:00+00
-107.76559,39.2336399999999,719,077-0504,LARAMIE ENERGY - VEGA PAD 13,39.23364,-107.76559,2023/05/04 00:00:00+00
-103.83243,39.9949100000001,720,001-2129,SIMPSON LEASE,39.99491,-103.83243,2023/05/04 00:00:00+00
-104.62872,38.2660100000001,721,101-0136,LOAF N JUG INC NO 67                    ,38.26601,-104.62872,2023/05/04 00:00:00+00
-108.38996,38.9915399999999,722,077-0386,TRANSCOLORADO GAS - WHITEWATER CS,38.99154,-108.38996,2023/05/04 00:00:00+00
-104.49053,40.2040900000001,723,123-7963,OVERLAND PASS - FT LUPTON/DJ JUNCTION,40.20409,-104.49053,2023/05/04 00:00:00+00
-104.83601,39.9889200000001,724,001-2169,AGGREGATE INDUSTRIES - TUCSON SOUTH PIT,39.98892,-104.83601,2023/05/04 00:00:00+00
-104.98794,39.56847,725,005-0668,DILLON COMPANIES - KING SOOPERS #122,39.56847,-104.98794,2023/05/04 00:00:00+00
-104.43843,40.38701,726,123-8274,PETROLEUM DEV National Hog Farm 32-21,40.38701,-104.43843,2023/05/04 00:00:00+00
-107.9117,38.5073,727,777-4368,STEIN CRUSHER - STEINCRUSHER #1,38.5073,-107.9117,2023/05/04 00:00:00+00
-104.71524,40.14761,728,123-9697,KERR-MCGEE O&G ONSHORE LP - 36057347,40.14761,-104.71524,2023/05/04 00:00:00+00
-104.9679,39.6787100000001,729,031-1226,CONOCOPHILLIPS COMPANY - 2706375        ,39.67871,-104.9679,2023/05/04 00:00:00+00
-108.32267,39.88157,730,103-0542,TEP ROCKY MTN - RG 31-18-297 WELL PAD,39.88157,-108.32267,2023/05/04 00:00:00+00
-104.585,38.28716,731,101-0187,CF ALTITUDE - ALTA CONVIENCE 3109,38.28716,-104.585,2023/05/04 00:00:00+00
-107.96809,39.4902399999999,732,045-1309,WILLIAMS RMT PA 24-26-W - NOW 045-0612,39.49024,-107.96809,2023/05/04 00:00:00+00
-108.08935,39.41409,733,045-1265,TEP ROCKY MTN - SG 41-27,39.41409,-108.08935,2023/05/04 00:00:00+00
-109.03516,39.72318,734,103-0582,FOUNDATION - COLUMBINE FED 7C-11-4-104,39.72318,-109.03516,2023/05/04 00:00:00+00
-104.68616,40.2624000000001,735,123-A0ED,"PDC ENERGY, INC. - HARVEY 32 SEC HZ",40.2624,-104.68616,2023/05/04 00:00:00+00
-104.92827,39.8226100000001,736,001-1232,JOAQUIN MFG CORP,39.82261,-104.92827,2023/05/04 00:00:00+00
-104.80154,40.2152900000001,737,123-2268,KERR-MCGEE 71125,40.21529,-104.80154,2023/05/04 00:00:00+00
-108.0991,39.3686500000001,738,045-0928,CAERUS PICEANCE - C10OU PRODUCTION FACIL,39.36865,-108.0991,2023/05/04 00:00:00+00
-104.19072,40.42431,739,123-9B39,BONANZA CREEK - PRONGHORN T-3,40.42431,-104.19072,2023/05/04 00:00:00+00
-104.68895,40.42706,740,123-0007,GREELEY ELEVATOR CO                     ,40.42706,-104.68895,2023/05/04 00:00:00+00
-104.69638,40.17748,741,123-1778,KERR-MCGEE - 36148787 MCGUCKIN,40.17748,-104.69638,2023/05/04 00:00:00+00
-104.65537,40.1193499999999,742,123-7376,KERR-MCGEE OIL & GAS -BATTERY #415682828,40.11935,-104.65537,2023/05/04 00:00:00+00
-107.83561,37.2033,743,067-0233,NIELSONS INC,37.2033,-107.83561,2023/05/04 00:00:00+00
-108.2949,39.9065800000001,744,103-0322,ROCKIES EXPRESS PIPELINE LLC - MEEKER,39.90658,-108.2949,2023/05/04 00:00:00+00
-103.72173,38.7516900000001,745,777-4573,A & S  CONSTRUCTION - CRUSHER #6,38.75169,-103.72173,2023/05/04 00:00:00+00
-108.20018,40.1367400000001,746,103-0209,ENCANA - ANT HILL UNIT DOW 18-44,40.13674,-108.20018,2023/05/04 00:00:00+00
-104.38343,40.0458399999999,747,123-4583,KERR-MCGEE - 34003449 / 97048,40.04584,-104.38343,2023/05/04 00:00:00+00
-104.59884,40.69415,748,123-99EE,EDGE ENERGY II - OC 8-64-6-1H,40.69415,-104.59884,2023/05/04 00:00:00+00
-104.92262,39.78132,749,031-0525,CARPENTER COMPANY INC                   ,39.78132,-104.92262,2023/05/04 00:00:00+00
-104.91412,40.32052,750,123-9B6E,PDC ENERGY - KLEIN WELLS,40.32052,-104.91412,2023/05/04 00:00:00+00
-104.96801,40.10285,751,123-6063,KP KAUFFMAN - Johnson 1 & 2,40.10285,-104.96801,2023/05/04 00:00:00+00
-105.0877,40.1631800000001,752,013-1364,LOAF N JUG INC NO 095,40.16318,-105.0877,2023/05/04 00:00:00+00
-104.89774,39.7717,753,031-1489,ARS INC - TRANSLOADERS,39.7717,-104.89774,2023/05/04 00:00:00+00
-105.11765,39.96347,754,013-0648,"WEDGEWOOD, LTD. -  BOXELDER ST",39.96347,-105.11765,2023/05/04 00:00:00+00
-104.64676,40.46681,755,123-6214,"PDC ENERGY - KOEHLER 1, 2",40.46681,-104.64676,2023/05/04 00:00:00+00
-107.98244,39.47576,756,045-1298,WILLIAMS PRODUCTION GV 45-34-W,39.47576,-107.98244,2023/05/04 00:00:00+00
-104.59698,40.0341300000001,757,123-A18D,VERDAD RESOURCES LLC - ONION PAD,40.03413,-104.59698,2023/05/04 00:00:00+00
-105.07316,39.9778300000001,758,013-1304,READY MIXED CONCRETE CO - PLANT 14,39.97783,-105.07316,2023/05/04 00:00:00+00
-106.1465,37.5787500000001,759,105-0044,SPARKLE CLEANERS,37.57875,-106.1465,2023/05/04 00:00:00+00
-104.8606,39.5931300000001,760,005-1677,MURPHY OIL USA - MURPHY EXPRESS #8769,39.59313,-104.8606,2023/05/04 00:00:00+00
-102.25881,38.9167500000001,761,017-0237,CITATION OIL - NORTH MAYFIELD TB,38.91675,-102.25881,2023/05/04 00:00:00+00
-106.85695,40.5019100000001,762,107-0095,"KUM & GO, LC- # 920                     ",40.50191,-106.85695,2023/05/04 00:00:00+00
-104.75593,40.09292,763,123-1364,CRESTONE PEAK - MCCONAHAY 43-34,40.09292,-104.75593,2023/05/04 00:00:00+00
-104.88354,39.9355100000001,764,001-2168,KP KAUFFMAN - ADAMS COUNTY GOLF #1,39.93551,-104.88354,2023/05/04 00:00:00+00
-107.98919,38.789,765,029-0043,FEATHER PETEROLEUM - STOP N SAVE #5,38.789,-107.98919,2023/05/04 00:00:00+00
-104.29794,40.43589,766,123-9628,BONANZA CREEK - STATE ANTELOPE 11-2HZ,40.43589,-104.29794,2023/05/04 00:00:00+00
-105.20581,39.6343400000001,767,777-4552,AGG INDUST - ELRUS PORT CRUSHING PLANT,39.63434,-105.20581,2023/05/04 00:00:00+00
-104.01321,40.64546,768,123-9FC2,CIVITAS NORTH - CASTOR 8-59-19,40.64546,-104.01321,2023/05/04 00:00:00+00
-107.67371,39.5375900000001,769,777-1373,SILT SAND & GRAVEL-PORT JAW CRUSHER     ,39.53759,-107.67371,2023/05/04 00:00:00+00
-104.79249,40.3207400000001,770,123-9D08,PDC ENERGY - FIVE RIVERS T4N-R66W-S8 L01,40.32074,-104.79249,2023/05/04 00:00:00+00
-104.70631,40.2890800000001,771,123-3617,NOBLE ENERGY INC. BATTERY #10076400,40.28908,-104.70631,2023/05/04 00:00:00+00
-104.48846,40.50901,772,123-5919,Noble Tank Battery #415790463,40.50901,-104.48846,2023/05/04 00:00:00+00
-108.12575,39.4604000000001,773,045-1162,TEP ROCKY MTN - MV 34-05,39.4604,-108.12575,2023/05/04 00:00:00+00
-104.50878,40.40304,774,123-8517,Noble Tank Battery #415860646,40.40304,-104.50878,2023/05/04 00:00:00+00
-104.4296,40.5777,775,123-99AF,NOBLE ENERGY-BALL RANCH T7N-R63W-S15 L02,40.5777,-104.4296,2023/05/04 00:00:00+00
-108.00552,38.7825000000001,776,029-0077,BENSON BROTHERS - PIGG MESA PIT,38.7825,-108.00552,2023/05/04 00:00:00+00
-104.50131,40.34309,777,123-6417,NOBLE ENERGY - BATTERY #10005200,40.34309,-104.50131,2023/05/04 00:00:00+00
-104.51665,39.35107,778,039-0063,"INLINER SOLUTIONS, LLC",39.35107,-104.51665,2023/05/04 00:00:00+00
-105.21345,40.0205300000001,779,777-3799,WESTERN DISPOSAL - PORTABLE GRINDER 424,40.02053,-105.21345,2023/05/04 00:00:00+00
-108.12076,39.4895400000001,780,045-1251,WILLIAMS RMT - GR 14-28 - NOW 045-1197,39.48954,-108.12076,2023/05/04 00:00:00+00
-108.1953,39.8998,781,103-0463,OVERLAND PASS - JL DAVIS METER,39.8998,-108.1953,2023/05/04 00:00:00+00
-104.71421,38.67812,782,041-2093,VERIZON WIRELESS - NIXON,38.67812,-104.71421,2023/05/04 00:00:00+00
-107.71665,39.53547,783,045-1800,TEP ROCKY MOUNTAIN - SNYDER C PAD,39.53547,-107.71665,2023/05/04 00:00:00+00
-103.61679,39.4054800000001,784,073-0082,LINCOLN COUNTY PIT - BURGESS PIT        ,39.40548,-103.61679,2023/05/04 00:00:00+00
-104.94956,37.13388,785,071-0508,TIMBER CREEK - NE 36-03,37.13388,-104.94956,2023/05/04 00:00:00+00
-104.62035,40.37436,786,123-9CE6,"PDC - HIGH PLAINS 25; LASALLE 25 SEC HZ",40.37436,-104.62035,2023/05/04 00:00:00+00
-106.08624,38.5210500000001,787,015-0031,SANDERS OIL CO INC                      ,38.52105,-106.08624,2023/05/04 00:00:00+00
-105.18559,40.79104,788,777-1487,PETE LIEN & SONS INC - PORTABLE SCREEN,40.79104,-105.18559,2023/05/04 00:00:00+00
-104.68528,39.91434,789,001-1742,CITY & COUNTY OF DENVER - 016532-NWSE-BA,39.91434,-104.68528,2023/05/04 00:00:00+00
-107.95337,39.2331,790,077-0110,ROCKY MTN NG - COLLBRAN C.S.,39.2331,-107.95337,2023/05/04 00:00:00+00
-104.7283,37.17576,791,071-0876,EVERGREEN NATURAL RESOURCES - OUTPOST 22,37.17576,-104.7283,2023/05/04 00:00:00+00
-104.97398,40.21369,792,123-7666,WOOD GROUP USA INC - LONGMONT FACILITY,40.21369,-104.97398,2023/05/04 00:00:00+00
-104.74855,39.7535300000001,793,001-1969,DRAKE WILLIAMS STEEL - 20400 E 26th AVE,39.75353,-104.74855,2023/05/04 00:00:00+00
-108.22979,39.5741800000001,794,045-2306,TEP ROCKY MTN - TR 21-36-597,39.57418,-108.22979,2023/05/04 00:00:00+00
-103.56945,38.8614400000001,795,073-0146,KTM OPERATING - CRAIG 4-4 TANK BATTERY,38.86144,-103.56945,2023/05/04 00:00:00+00
-105.08288,39.8554600000001,796,059-0465,WHITE GLOVE CLNRS                       ,39.85546,-105.08288,2023/05/04 00:00:00+00
-102.06441,40.99242,797,115-0008,SEDGWICK CNTY RD & BRIDGE - DOLEZAL PIT ,40.99242,-102.06441,2023/05/04 00:00:00+00
-104.78031,40.45387,798,123-4874,NOBLE ENERGY INC. BATTERY #10089600,40.45387,-104.78031,2023/05/04 00:00:00+00
-104.81573,38.82811,799,777-1879,TRANSIT MIX CONCRETE                    ,38.82811,-104.81573,2023/05/04 00:00:00+00
-104.62801,40.33943,800,123-3524,NOBLE ENERGY INC. BATTERY #10104900,40.33943,-104.62801,2023/05/04 00:00:00+00
-104.99886,39.72119,801,031-0893,"7-ELEVEN, INC. - NO 27620",39.72119,-104.99886,2023/05/04 00:00:00+00
-108.08466,39.3949300000001,802,045-1749,BARGATH LLC - UNA COMPRESSOR STATION    ,39.39493,-108.08466,2023/05/04 00:00:00+00
-104.5263,40.58253,803,123-9258,Noble Tank Battery #415809997,40.58253,-104.5263,2023/05/04 00:00:00+00
-102.5751,40.0918600000001,804,125-2053,FOUNDATION ENERGY - STATE 34-36-247,40.09186,-102.5751,2023/05/04 00:00:00+00
-107.5851,37.2615600000001,805,067-1239,SIMCOE LLC - STATE OF COLORADO AW3,37.26156,-107.5851,2023/05/04 00:00:00+00
-104.99625,40.1913700000001,806,123-7235,KERR-MCGEE 35010027,40.19137,-104.99625,2023/05/04 00:00:00+00
-105.24386,40.0277600000001,807,013-1231,CALIBER COLLISION - BOULDER - #0843,40.02776,-105.24386,2023/05/04 00:00:00+00
-107.5471,40.5213,808,081-0087,"KUM & GO, L.C. - STORE #901",40.5213,-107.5471,2023/05/04 00:00:00+00
-104.50156,40.20475,809,123-2753,NOBLE ENERGY - BATTERY #11335800,40.20475,-104.50156,2023/05/04 00:00:00+00
-107.66359,37.2898000000001,810,067-1189,SIMCOE LLC - CUNDIFF FEDERAL GAS UNIT A1,37.2898,-107.66359,2023/05/04 00:00:00+00
-105.0615,40.58954,811,069-0557,SOUTH FORT COLLINS SANITATION DISTRICT,40.58954,-105.0615,2023/05/04 00:00:00+00
-104.58047,40.5225600000001,812,123-6722,NOBLE ENERGY - CECIL 415779730,40.52256,-104.58047,2023/05/04 00:00:00+00
-104.06206,40.5976200000001,813,123-9DBE,RED HAWK PETROLEUM - LOOMIS 2-1H,40.59762,-104.06206,2023/05/04 00:00:00+00
-105.0006,39.7942,814,001-1301,"HOLCIM (US) INC., DENVER TERMINAL       ",39.7942,-105.0006,2023/05/04 00:00:00+00
-105.16632,39.8194100000001,815,059-1266,JEFFCO SCHOOLS - ARVADA BUS TERMINAL    ,39.81941,-105.16632,2023/05/04 00:00:00+00
-104.59645,40.1547,816,123-6161,NOBLE ENERGY - BATTERY #116270,40.1547,-104.59645,2023/05/04 00:00:00+00
-104.99738,39.65304,817,005-1061,STINKER STORES - STINKER #340,39.65304,-104.99738,2023/05/04 00:00:00+00
-108.35441,40.1661199999999,818,103-0050,WRR SAND & GRAVEL - BLAIR MESA PIT      ,40.16612,-108.35441,2023/05/04 00:00:00+00
-102.86665,38.8676500000001,819,017-0097,CITATION OIL & GAS - MCCORMICK 2C,38.86765,-102.86665,2023/05/04 00:00:00+00
-104.39785,39.8144,820,777-4549,ALBERT FREI & SONS - PORTABLE SCREEN/GEN,39.8144,-104.39785,2023/05/04 00:00:00+00
-107.6167,40.47199,821,081-0045,WILLIAMS FORK CO - WILLIAMS FORK PIT,40.47199,-107.6167,2023/05/04 00:00:00+00
-103.51026,37.9909000000001,822,089-0068,ALL-RITE PAVING & REDI-MIX- N RIVER PIT,37.9909,-103.51026,2023/05/04 00:00:00+00
-104.84874,40.39189,823,123-3057,Noble Tank Battery #415779763,40.39189,-104.84874,2023/05/04 00:00:00+00
-105.86673,37.4683900000001,824,003-0025,WEISS DRY CLEANERS                      ,37.46839,-105.86673,2023/05/04 00:00:00+00
-107.62853,39.53766,825,045-2392,TEP ROCKY MOUNTAIN -VALLEY FARMS L,39.53766,-107.62853,2023/05/04 00:00:00+00
-104.85581,39.54497,826,035-0715,DISH NETWORK - MERIDIAN-CORP,39.54497,-104.85581,2023/05/04 00:00:00+00
-107.52752,37.23873,827,067-1283,"SIMCOE LLC - FISCHER, MARK FEDERAL B5",37.23873,-107.52752,2023/05/04 00:00:00+00
-104.80724,40.2442,828,123-2032,KERR-MCGEE 75810,40.2442,-104.80724,2023/05/04 00:00:00+00
-104.67804,40.0750200000001,829,123-3815,CRESTONE PEAK - RUEGGE 4H-N165,40.07502,-104.67804,2023/05/04 00:00:00+00
-104.7909,40.32546,830,123-8242,NOBLE ENERGY - BATTERY #415747948,40.32546,-104.7909,2023/05/04 00:00:00+00
-104.94073,40.2163400000001,831,123-0136,WESTERN SUGAR CO                        ,40.21634,-104.94073,2023/05/04 00:00:00+00
-104.73119,39.89808,832,001-2020,CITY & COUNTY OF DENVER - DIA 266-12-22,39.89808,-104.73119,2023/05/04 00:00:00+00
-104.73446,40.2819000000001,833,123-9D0F,"PDC ENERGY - SANDAU K25-65-1HN, 66-1HN",40.2819,-104.73446,2023/05/04 00:00:00+00
-105.23443,40.0246300000001,834,013-0087,CITY OF BOULDER - FLEET VEHICLE SITE,40.02463,-105.23443,2023/05/04 00:00:00+00
-104.9885,39.61289,835,005-1126,KING SOOPERS - SEE 005/1650,39.61289,-104.9885,2023/05/04 00:00:00+00
-104.4342,39.74138,836,001-1946,LOVE'S TRAVEL STOP #300                 ,39.74138,-104.4342,2023/05/04 00:00:00+00
-104.77919,40.22187,837,123-9D50,KERR-MCGEE OIL AND GAS ONSHORE -36144563,40.22187,-104.77919,2023/05/04 00:00:00+00
-105.15803,38.9423200000001,838,119-0038,MT HOME - MOUNTAIN MEMORIAL FUNERA L HOM,38.94232,-105.15803,2023/05/04 00:00:00+00
-104.60333,40.2790600000001,839,123-9DB1,NOBLE ENERGY - HEARTLAND STATE ECONODE,40.27906,-104.60333,2023/05/04 00:00:00+00
-104.54396,40.00955,840,123-6973,KP KAUFFMAN - HSR LOST CRK - DORIS 12-34,40.00955,-104.54396,2023/05/04 00:00:00+00
-108.59012,37.3647800000001,841,083-0091,OLDCASTLE / FOUR CORNERS - 10400 ROAD 25,37.36478,-108.59012,2023/05/04 00:00:00+00
-107.63392,39.49431,842,045-1653,GRIZZLY OPERATING - 38482 SNYDER 34D-26-,39.49431,-107.63392,2023/05/04 00:00:00+00
-104.83117,38.8866800000001,843,041-0277,LEISER PAINTING & DECORATING CO INC     ,38.88668,-104.83117,2023/05/04 00:00:00+00
-104.64244,40.41569,844,123-6542,EXTRACTION O&G - NELSON #43-10,40.41569,-104.64244,2023/05/04 00:00:00+00
-104.52886,38.3208000000001,845,101-1160,BLACK HILLS ELECTRIC GENERATION - PAGS,38.3208,-104.52886,2023/05/04 00:00:00+00
-108.11834,39.5577900000001,846,045-1845,CAERUS PICEANCE LLC - PARACHUTE CREEK 11,39.55779,-108.11834,2023/05/04 00:00:00+00
-104.54445,40.2163100000001,847,123-8519,Noble Tank Battery #415860743,40.21631,-104.54445,2023/05/04 00:00:00+00
-104.69759,40.55953,848,123-A0D1,BAYSWATER - CALVARY FARMS SOUTH TANK BAT,40.55953,-104.69759,2023/05/04 00:00:00+00
-104.79501,39.6285200000001,849,005-0627,NEW LOOK CLNRS,39.62852,-104.79501,2023/05/04 00:00:00+00
-104.77138,40.44633,850,123-4885,"SEE 123-4456 PATINA WILLIAMS 2-34, TENNY",40.44633,-104.77138,2023/05/04 00:00:00+00
-108.20762,39.57721,851,045-2116,CAERUS PICEANCE - 596-31A PAD,39.57721,-108.20762,2023/05/04 00:00:00+00
-108.56002,39.0280300000001,852,777-3212,ELAM CONSTRUCTION INC - GEN G-099       ,39.02803,-108.56002,2023/05/04 00:00:00+00
-108.37365,39.85167,853,103-0465,WHITING OIL & GAS - BOIES #C-27A PAD    ,39.85167,-108.37365,2023/05/04 00:00:00+00
-104.53371,39.8573500000001,854,001-1419,"PETROSHARE - Ambush B 34, 44-22",39.85735,-104.53371,2023/05/04 00:00:00+00
-104.36062,40.4468400000001,855,123-8828,Noble Tank Battery #415798286,40.44684,-104.36062,2023/05/04 00:00:00+00
-104.84241,38.83279,856,041-0520,CHIEF PETROLEUM                         ,38.83279,-104.84241,2023/05/04 00:00:00+00
-104.83808,38.8213200000001,857,041-0195,KEN'S COLORS INC.                       ,38.82132,-104.83808,2023/05/04 00:00:00+00
-104.90619,40.1335600000001,858,123-A03B,CRESTONE PEAK  - BIGHORN 17H-P267,40.13356,-104.90619,2023/05/04 00:00:00+00
-105.04212,40.02642,859,123-3769,CRESTONE PEAK - BARB LTD #30-8 (P&A),40.02642,-105.04212,2023/05/04 00:00:00+00
-108.16641,39.5174900000001,860,045-1808,CAERUS PICEANCE - CHEVRON O13 697,39.51749,-108.16641,2023/05/04 00:00:00+00
-104.9433,40.35312,861,123-9E43,EXTRACTION OIL&GAS - WIND PRODUCTION FAC,40.35312,-104.9433,2023/05/04 00:00:00+00
-104.52182,40.1152900000001,862,123-A164,KUM & GO - #2906,40.11529,-104.52182,2023/05/04 00:00:00+00
-107.9452,39.4869100000001,863,045-1632,TEP ROCKY MTN - PA 31-36,39.48691,-107.9452,2023/05/04 00:00:00+00
-104.90753,40.1400200000001,864,123-3802,CRESTONE PEAK - MILLER 1-2 BATTERY,40.14002,-104.90753,2023/05/04 00:00:00+00
-104.43429,40.5531400000001,865,123-8729,NOBLE ENERGY - JASMINE T7N-R63W-S21 L01,40.55314,-104.43429,2023/05/04 00:00:00+00
-104.96124,40.1238499999999,866,123-5176,EXTRACTION O&G - GRANT BROTHERS BATTERY,40.12385,-104.96124,2023/05/04 00:00:00+00
-104.5582,40.3031099999999,867,123-2664,NOBLE ENERGY INC. BATTERY #10012200,40.30311,-104.5582,2023/05/04 00:00:00+00
-102.16334,39.8641400000001,868,125-2046,FOUNDATION ENERGY - RENZELMAN 14-23,39.86414,-102.16334,2023/05/04 00:00:00+00
-104.77704,39.75156,869,001-0763,CELERITY ENERGY    WAGNER EQUIPMENT CO. ,39.75156,-104.77704,2023/05/04 00:00:00+00
-108.38353,40.00284,870,103-0368,CAERUS PICEANCE - YELLOW CREEK FEDERAL 3,40.00284,-108.38353,2023/05/04 00:00:00+00
-104.9383,40.15761,871,123-1384,CRESTONE PEAK - WANDELL C UNIT #1,40.15761,-104.9383,2023/05/04 00:00:00+00
-104.57714,40.2964900000001,872,123-5086,"NOBLE ENERGY, INC. - 415860686",40.29649,-104.57714,2023/05/04 00:00:00+00
-104.84733,40.4634,873,123-4406,OWENS-BROCKWAY GLASS - WINDSOR #28,40.4634,-104.84733,2023/05/04 00:00:00+00
-105.16633,39.7805,874,059-0020,"HAZEN RESEARCH, INC - 4601 INDIANA ST",39.7805,-105.16633,2023/05/04 00:00:00+00
-104.79034,39.71813,875,005-1376,AURORA PUBLIC SCHOOLS - TRANS DEPT      ,39.71813,-104.79034,2023/05/04 00:00:00+00
-105.08183,40.45693,876,069-0530,WAL-MART STORE #1008,40.45693,-105.08183,2023/05/04 00:00:00+00
-106.34233,38.1347600000001,877,109-0018,"SOUTHWAY CONSTRUCTION CO., INC.",38.13476,-106.34233,2023/05/04 00:00:00+00
-104.1157,39.6603800000001,878,005-1485,TYLER ROCKIES - PEORIA #36 & #56        ,39.66038,-104.1157,2023/05/04 00:00:00+00
